$GPGGA,215713.600,3037.1452,N,09620.3877,W,1,5,2.10,102.5,M,-23.3,M,,*67
$GPGSA,A,3,11,08,13,23,28,,,,,,,,2.67,2.10,1.64*00
$GPGSV,2,1,07,13,77,237,26,19,57,102,,23,47,167,27,48,36,235,49*73
$GPGSV,2,2,07,08,19,305,30,28,16,248,28,11,09,161,37*49
$GPRMC,215713.600,A,3037.1452,N,09620.3877,W,0.75,229.05,300609,,,A*78
$GPGGA,215713.800,3037.1451,N,09620.3879,W,1,5,2.10,102.4,M,-23.3,M,,*65
$GPGSA,A,3,11,08,13,23,28,,,,,,,,2.67,2.10,1.64*00
$GPGSV,2,1,07,13,77,237,26,19,57,102,,23,47,167,27,48,36,235,49*73
$GPGSV,2,2,07,08,19,305,30,28,16,248,28,11,09,161,37*49
$GPRMC,215713.800,A,3037.1451,N,09620.3879,W,0.75,229.15,300609,,,A*7A
$GPGGA,215714.000,3037.1450,N,09620.3881,W,1,5,2.10,102.3,M,-23.3,M,,*6B
$GPGSA,A,3,11,08,13,23,28,,,,,,,,2.67,2.10,1.64*00
$GPGSV,2,1,07,13,77,237,26,19,57,102,,23,47,167,27,48,36,235,49*73
$GPGSV,2,2,07,08,19,305,30,28,16,248,28,11,09,161,37*49
$GPRMC,215714.000,A,3037.1450,N,09620.3881,W,0.75,229.25,300609,,,A*70
$GPGGA,215714.200,3037.1450,N,09620.3882,W,1,5,2.10,102.2,M,-23.3,M,,*6B
$GPGSA,A,3,11,08,13,23,28,,,,,,,,2.67,2.10,1.64*00
$GPGSV,2,1,07,13,77,237,26,19,57,102,,23,47,167,27,48,36,235,49*73
$GPGSV,2,2,07,08,19,305,30,28,16,248,28,11,09,161,37*49
$GPRMC,215714.200,A,3037.1450,N,09620.3882,W,0.75,229.71,300609,,,A*70
$GPGGA,215714.400,3037.1450,N,09620.3883,W,1,5,2.10,102.1,M,-23.3,M,,*6F
$GPGSA,A,3,11,08,13,23,28,,,,,,,,2.67,2.10,1.64*00
$GPGSV,2,1,07,13,77,237,26,19,57,102,,23,47,167,27,48,36,235,49*73
$GPGSV,2,2,07,08,19,305,30,28,16,248,28,11,09,161,37*49
$GPRMC,215714.400,A,3037.1450,N,09620.3883,W,0.75,230.20,300609,,,A*7B
$GPGGA,215714.600,3037.1449,N,09620.3885,W,1,5,2.10,102.1,M,-23.3,M,,*63
$GPGSA,A,3,11,08,13,23,28,,,,,,,,2.67,2.10,1.64*00
$GPGSV,2,1,07,13,77,237,26,19,57,102,,23,47,167,27,48,36,235,49*73
$GPGSV,2,2,07,08,19,305,30,28,16,248,28,11,09,161,37*49
$GPRMC,215714.600,A,3037.1449,N,09620.3885,W,0.75,230.67,300609,,,A*74
$GPGGA,215714.800,3037.1449,N,09620.3887,W,1,5,1.95,102.1,M,-23.3,M,,*61
$GPGSA,A,3,11,08,13,23,28,,,,,,,,2.13,1.95,0.85*03
$GPGSV,2,1,07,13,77,237,26,19,57,102,,23,47,167,27,48,36,235,49*73
$GPGSV,2,2,07,08,19,305,30,28,16,248,28,11,09,161,37*49
$GPRMC,215714.800,A,3037.1449,N,09620.3887,W,0.75,230.09,300609,,,A*70
$GPGGA,215715.000,3037.1448,N,09620.3889,W,1,5,1.95,102.1,M,-23.3,M,,*67
$GPGSA,A,3,11,08,13,23,28,,,,,,,,2.13,1.95,0.85*03
$GPGSV,2,1,07,13,77,237,26,19,57,102,,23,47,167,27,48,36,235,49*73
$GPGSV,2,2,07,08,19,305,30,28,16,248,28,11,09,161,37*49
$GPRMC,215715.000,A,3037.1448,N,09620.3889,W,0.75,228.85,300609,,,A*7B
$GPGGA,215715.200,3037.1447,N,09620.3890,W,1,5,2.10,102.0,M,-23.3,M,,*6D
$GPGSA,A,3,11,08,13,23,28,,,,,,,,2.67,2.10,1.64*00
$GPGSV,2,1,07,13,77,237,26,19,57,102,,23,47,167,27,48,36,235,49*73
$GPGSV,2,2,07,08,19,305,30,28,16,248,28,11,09,161,37*49
$GPRMC,215715.200,A,3037.1447,N,09620.3890,W,0.75,227.80,300609,,,A*74
$GPGGA,215715.400,3037.1445,N,09620.3892,W,1,5,2.10,101.9,M,-23.3,M,,*61
$GPGSA,A,3,11,08,13,23,28,,,,,,,,2.67,2.10,1.64*00
$GPGSV,2,1,07,13,77,237,27,19,57,102,,23,47,167,27,48,36,235,49*72
$GPGSV,2,2,07,08,19,305,30,28,16,248,28,11,09,161,37*49
$GPRMC,215715.400,A,3037.1445,N,09620.3892,W,0.91,226.95,300609,,,A*7D
$GPGGA,215715.600,3037.1445,N,09620.3894,W,1,5,2.10,101.9,M,-23.3,M,,*65
$GPGSA,A,3,11,08,13,23,28,,,,,,,,2.67,2.10,1.64*00
$GPGSV,2,1,07,13,77,237,28,19,57,102,,23,47,167,27,48,36,235,49*7D
$GPGSV,2,2,07,08,19,305,30,28,16,248,28,11,09,161,37*49
$GPRMC,215715.600,A,3037.1445,N,09620.3894,W,0.91,226.37,300609,,,A*71
$GPGGA,215715.800,3037.1444,N,09620.3896,W,1,5,2.10,101.8,M,-23.3,M,,*69
$GPGSA,A,3,11,08,13,23,28,,,,,,,,2.67,2.10,1.64*00
$GPGSV,2,1,07,13,77,237,28,19,57,102,,23,47,167,27,48,36,235,49*7D
$GPGSV,2,2,07,08,19,305,30,28,16,248,28,11,09,161,37*49
$GPRMC,215715.800,A,3037.1444,N,09620.3896,W,0.91,226.56,300609,,,A*7B
$GPGGA,215716.000,3037.1444,N,09620.3898,W,1,5,2.10,101.6,M,-23.3,M,,*62
$GPGSA,A,3,11,08,13,23,28,,,,,,,,2.67,2.10,1.64*00
$GPGSV,2,1,07,13,77,237,28,19,57,102,,23,47,167,27,48,36,235,49*7D
$GPGSV,2,2,07,08,19,305,30,28,16,248,28,11,09,161,37*49
$GPRMC,215716.000,A,3037.1444,N,09620.3898,W,0.91,226.91,300609,,,A*75
$GPGGA,215716.200,3037.1444,N,09620.3899,W,1,5,2.10,101.5,M,-23.3,M,,*62
$GPGSA,A,3,11,08,13,23,28,,,,,,,,2.67,2.10,1.64*00
$GPGSV,2,1,07,13,77,237,29,19,57,102,,23,47,167,27,48,36,235,49*7C
$GPGSV,2,2,07,08,19,305,29,28,16,248,28,11,09,161,37*41
$GPRMC,215716.200,A,3037.1444,N,09620.3899,W,0.91,227.15,300609,,,A*7B
$GPGGA,215716.400,3037.1444,N,09620.3901,W,1,5,2.10,101.4,M,-23.3,M,,*65
$GPGSA,A,3,11,08,13,23,28,,,,,,,,2.67,2.10,1.64*00
$GPGSV,2,1,07,13,77,237,29,19,57,102,,23,47,167,27,48,36,235,49*7C
$GPGSV,2,2,07,08,19,305,29,28,16,248,28,11,09,161,37*41
$GPRMC,215716.400,A,3037.1444,N,09620.3901,W,0.91,227.28,300609,,,A*73
$GPGGA,215716.600,3037.1443,N,09620.3901,W,1,5,2.10,101.4,M,-23.3,M,,*60
$GPGSA,A,3,11,08,13,23,28,,,,,,,,2.67,2.10,1.64*00
$GPGSV,2,1,07,13,77,237,29,19,57,102,,23,47,167,27,48,36,235,49*7C
$GPGSV,2,2,07,08,19,305,29,28,16,248,28,11,09,161,37*41
$GPRMC,215716.600,A,3037.1443,N,09620.3901,W,0.91,227.41,300609,,,A*79
$GPGGA,215716.800,3037.1444,N,09620.3902,W,1,5,2.10,101.3,M,-23.3,M,,*6D
$GPGSA,A,3,11,08,13,23,28,,,,,,,,2.67,2.10,1.64*00
$GPGSV,2,1,07,13,77,237,29,19,57,102,,23,47,167,27,48,36,235,49*7C
$GPGSV,2,2,07,08,19,305,29,28,16,248,28,11,09,161,37*41
$GPRMC,215716.800,A,3037.1444,N,09620.3902,W,0.91,227.77,300609,,,A*76
$GPGGA,215717.200,3037.1445,N,09620.3903,W,1,5,2.10,101.8,M,-23.3,M,,*6D
$GPGSA,A,3,11,08,13,23,28,,,,,,,,2.67,2.10,1.64*00
$GPGSV,2,1,07,13,77,236,29,19,57,102,,23,47,167,27,48,36,235,49*7D
$GPGSV,2,2,07,08,19,305,29,28,16,248,28,11,09,161,37*41
$GPRMC,215717.200,A,3037.1445,N,09620.3903,W,0.91,228.71,300609,,,A*74
$GPGGA,215718.000,3037.1448,N,09620.3903,W,1,5,2.10,101.5,M,-23.3,M,,*60
$GPGSA,A,3,11,08,13,23,28,,,,,,,,2.67,2.10,1.64*00
$GPGSV,2,1,07,13,77,236,30,19,57,102,,23,47,167,28,48,36,235,49*7A
$GPGSV,2,2,07,08,19,305,28,28,16,248,28,11,09,161,37*40
$GPRMC,215718.000,A,3037.1448,N,09620.3903,W,0.91,230.46,300609,,,A*79
$GPGGA,215718.400,3037.1449,N,09620.3906,W,1,5,2.10,101.2,M,-23.3,M,,*67
$GPGSA,A,3,11,08,13,23,28,,,,,,,,2.67,2.10,1.64*00
$GPGSV,2,1,07,13,77,236,30,19,57,102,,23,47,167,29,48,36,235,49*7B
$GPGSV,2,2,07,08,19,305,28,28,16,248,28,11,09,161,37*40
$GPRMC,215718.400,A,3037.1449,N,09620.3906,W,0.53,230.79,300609,,,A*7B
$GPGGA,215718.600,3037.1449,N,09620.3907,W,1,5,2.10,100.9,M,-23.3,M,,*6E
$GPGSA,A,3,11,08,13,23,28,,,,,,,,2.67,2.10,1.64*00
$GPGSV,2,1,07,13,77,236,30,19,57,102,,23,47,167,29,48,36,235,49*7B
$GPGSV,2,2,07,08,19,305,28,28,16,248,28,11,09,161,37*40
$GPRMC,215718.600,A,3037.1449,N,09620.3907,W,0.53,231.13,300609,,,A*75
$GPGGA,215718.800,3037.1449,N,09620.3907,W,1,5,2.10,100.9,M,-23.3,M,,*60
$GPGSA,A,3,11,08,13,23,28,,,,,,,,2.67,2.10,1.64*00
$GPGSV,2,1,07,13,77,236,30,19,57,102,,23,47,167,29,48,36,235,49*7B
$GPGSV,2,2,07,08,19,305,27,28,16,248,28,11,09,161,37*4F
$GPRMC,215718.800,A,3037.1449,N,09620.3907,W,0.53,231.40,300609,,,A*7D
$GPGGA,215719.000,3037.1449,N,09620.3907,W,1,5,2.10,100.8,M,-23.3,M,,*68
$GPGSA,A,3,11,08,13,23,28,,,,,,,,2.67,2.10,1.64*00
$GPGSV,2,1,07,13,77,236,30,19,57,102,,23,47,167,30,48,36,235,49*73
$GPGSV,2,2,07,08,19,305,26,28,16,248,28,11,09,161,37*4E
$GPRMC,215719.000,A,3037.1449,N,09620.3907,W,0.53,231.35,300609,,,A*76
$GPGGA,215719.200,3037.1449,N,09620.3907,W,1,5,2.10,100.8,M,-23.3,M,,*6A
$GPGSA,A,3,11,08,13,23,28,,,,,,,,2.67,2.10,1.64*00
$GPGSV,2,1,07,13,77,236,30,19,57,102,,23,47,167,30,48,36,235,49*73
$GPGSV,2,2,07,08,19,305,26,28,16,248,28,11,09,161,37*4E
$GPRMC,215719.200,A,3037.1449,N,09620.3907,W,0.53,231.42,300609,,,A*74
$GPGGA,215719.400,3037.1449,N,09620.3907,W,1,5,2.10,100.7,M,-23.3,M,,*63
$GPGSA,A,3,11,08,13,23,28,,,,,,,,2.67,2.10,1.64*00
$GPGSV,2,1,07,13,77,236,30,19,57,102,,23,47,167,31,48,36,235,49*72
$GPGSV,2,2,07,08,19,305,26,28,16,248,27,11,09,161,37*41
$GPRMC,215719.400,A,3037.1449,N,09620.3907,W,0.53,232.04,300609,,,A*73
$GPGGA,215719.600,3037.1449,N,09620.3908,W,1,5,2.10,100.7,M,-23.3,M,,*6E
$GPGSA,A,3,11,08,13,23,28,,,,,,,,2.67,2.10,1.64*00
$GPGSV,2,1,07,13,77,236,30,19,57,102,,23,47,167,31,48,36,235,49*72
$GPGSV,2,2,07,08,19,305,26,28,16,248,27,11,09,161,37*41
$GPRMC,215719.600,A,3037.1449,N,09620.3908,W,0.53,232.79,300609,,,A*74
$GPGGA,215719.800,3037.1448,N,09620.3908,W,1,5,2.10,100.6,M,-23.3,M,,*60
$GPGSA,A,3,11,08,13,23,28,,,,,,,,2.67,2.10,1.64*00
$GPGSV,2,1,07,13,77,236,30,19,57,102,,23,47,167,31,48,36,235,49*72
$GPGSV,2,2,07,08,19,305,26,28,16,248,27,11,09,161,37*41
$GPRMC,215719.800,A,3037.1448,N,09620.3908,W,0.53,233.78,300609,,,A*7B
$GPGGA,215720.000,3037.1448,N,09620.3908,W,1,5,2.10,100.5,M,-23.3,M,,*61
$GPGSA,A,3,11,08,13,23,28,,,,,,,,2.67,2.10,1.64*00
$GPGSV,2,1,07,13,77,236,30,19,57,102,,23,47,167,31,48,36,235,49*72
$GPGSV,2,2,07,08,19,305,26,28,16,248,27,11,09,161,37*41
$GPRMC,215720.000,A,3037.1448,N,09620.3908,W,0.53,235.19,300609,,,A*78
$GPGGA,215720.200,3037.1448,N,09620.3908,W,1,5,2.10,100.5,M,-23.3,M,,*63
$GPGSA,A,3,11,08,13,23,28,,,,,,,,2.67,2.10,1.64*00
$GPGSV,2,1,07,13,77,236,30,19,57,102,,23,47,167,31,48,36,235,49*72
$GPGSV,2,2,07,08,19,305,26,28,16,248,26,11,09,161,37*40
$GPRMC,215720.200,A,3037.1448,N,09620.3908,W,0.53,237.49,300609,,,A*7D
$GPGGA,215720.400,3037.1448,N,09620.3908,W,1,5,2.10,100.4,M,-23.3,M,,*64
$GPGSA,A,3,11,08,13,23,28,,,,,,,,2.67,2.10,1.64*00
$GPGSV,2,1,07,13,77,236,30,19,57,102,,23,47,167,31,48,36,235,49*72
$GPGSV,2,2,07,08,19,305,26,28,16,248,25,11,09,161,37*43
$GPRMC,215720.400,A,3037.1448,N,09620.3908,W,0.53,240.36,300609,,,A*73
$GPGGA,215720.600,3037.1448,N,09620.3908,W,1,5,2.10,100.4,M,-23.3,M,,*66
$GPGSA,A,3,11,08,13,23,28,,,,,,,,2.67,2.10,1.64*00
$GPGSV,2,1,07,13,77,236,30,19,57,102,,23,47,167,31,48,36,235,49*72
$GPGSV,2,2,07,08,19,305,26,28,16,248,25,11,09,161,37*43
$GPRMC,215720.600,A,3037.1448,N,09620.3908,W,0.25,243.21,300609,,,A*75
$GPGGA,215720.800,3037.1448,N,09620.3908,W,1,5,2.10,100.3,M,-23.3,M,,*6F
$GPGSA,A,3,11,08,13,23,28,,,,,,,,2.67,2.10,1.64*00
$GPGSV,2,1,07,13,77,236,30,19,57,102,,23,47,167,31,48,36,235,49*72
$GPGSV,2,2,07,08,19,305,26,28,16,248,25,11,09,161,37*43
$GPRMC,215720.800,A,3037.1448,N,09620.3908,W,0.25,246.30,300609,,,A*7E
$GPGGA,215721.000,3037.1448,N,09620.3909,W,1,5,2.10,100.2,M,-23.3,M,,*66
$GPGSA,A,3,11,08,13,23,28,,,,,,,,2.67,2.10,1.64*00
$GPGSV,2,1,07,13,77,236,30,19,57,102,,23,47,167,31,48,36,235,49*72
$GPGSV,2,2,07,08,19,305,26,28,16,248,25,11,09,161,37*43
$GPRMC,215721.000,A,3037.1448,N,09620.3909,W,0.25,250.45,300609,,,A*73
$GPGGA,215721.200,3037.1448,N,09620.3909,W,1,5,2.10,100.2,M,-23.3,M,,*64
$GPGSA,A,3,11,08,13,23,28,,,,,,,,2.67,2.10,1.64*00
$GPGSV,2,1,07,13,77,236,30,19,57,102,,23,47,167,31,48,36,235,49*72
$GPGSV,2,2,07,08,19,305,26,28,16,248,25,11,09,161,37*43
$GPRMC,215721.200,A,3037.1448,N,09620.3909,W,0.25,255.00,300609,,,A*75
$GPGGA,215721.400,3037.1448,N,09620.3909,W,1,5,2.10,100.1,M,-23.3,M,,*61
$GPGSA,A,3,11,08,13,23,28,,,,,,,,2.67,2.10,1.64*00
$GPGSV,2,1,07,13,77,236,30,19,57,102,,23,47,167,31,48,36,235,49*72
$GPGSV,2,2,07,08,19,305,26,28,16,248,25,11,09,161,37*43
$GPRMC,215721.400,A,3037.1448,N,09620.3909,W,0.25,259.23,300609,,,A*7E
$GPGGA,215721.600,3037.1448,N,09620.3909,W,1,5,2.10,100.1,M,-23.3,M,,*63
$GPGSA,A,3,11,08,13,23,28,,,,,,,,2.67,2.10,1.64*00
$GPGSV,2,1,07,13,77,236,30,19,57,102,,23,47,167,32,48,36,235,49*71
$GPGSV,2,2,07,08,19,305,26,28,16,248,25,11,09,161,37*43
$GPRMC,215721.600,A,3037.1448,N,09620.3909,W,0.25,263.92,300609,,,A*7F
$GPGGA,215721.800,3037.1448,N,09620.3909,W,1,5,2.10,100.0,M,-23.3,M,,*6C
$GPGSA,A,3,11,08,13,23,28,,,,,,,,2.67,2.10,1.64*00
$GPGSV,2,1,07,13,77,236,30,19,57,102,,23,47,167,32,48,36,235,49*71
$GPGSV,2,2,07,08,19,305,26,28,16,248,25,11,09,161,37*43
$GPRMC,215721.800,A,3037.1448,N,09620.3909,W,0.25,266.50,300609,,,A*7A
$GPGGA,215722.000,3037.1448,N,09620.3909,W,1,5,2.10,99.9,M,-23.3,M,,*5F
$GPGSA,A,3,11,08,13,23,28,,,,,,,,2.67,2.10,1.64*00
$GPGSV,2,1,07,13,77,236,30,19,57,102,,23,47,167,32,48,36,235,49*71
$GPGSV,2,2,07,08,19,305,26,28,16,248,25,11,09,161,37*43
$GPRMC,215722.000,A,3037.1448,N,09620.3909,W,0.25,268.12,300609,,,A*79
$GPGGA,215722.200,3037.1448,N,09620.3909,W,1,5,2.10,99.9,M,-23.3,M,,*5D
$GPGSA,A,3,11,08,13,23,28,,,,,,,,2.67,2.10,1.64*00
$GPGSV,2,1,07,13,77,236,30,19,57,102,,23,47,167,32,48,36,235,49*71
$GPGSV,2,2,07,08,19,305,26,28,16,248,25,11,09,161,37*43
$GPRMC,215722.200,A,3037.1448,N,09620.3909,W,0.25,268.41,300609,,,A*7D
$GPGGA,215722.400,3037.1448,N,09620.3912,W,2,5,2.10,99.2,M,-23.3,M,0000,0000*59
$GPGSA,A,3,11,08,13,23,28,,,,,,,,2.67,2.10,1.64*00
$GPGSV,2,1,07,13,77,236,30,19,57,102,,23,47,167,33,48,36,235,49*70
$GPGSV,2,2,07,08,19,305,26,28,16,248,25,11,09,161,37*43
$GPRMC,215722.400,A,3037.1448,N,09620.3912,W,0.25,266.94,300609,,,D*72
$GPGGA,215722.600,3037.1448,N,09620.3915,W,2,5,2.10,98.8,M,-23.3,M,0000,0000*57
$GPGSA,A,3,11,08,13,23,28,,,,,,,,2.67,2.10,1.64*00
$GPGSV,2,1,07,13,77,236,30,19,57,102,,23,47,167,33,48,36,235,49*70
$GPGSV,2,2,07,08,19,305,26,28,16,248,25,11,09,161,37*43
$GPRMC,215722.600,A,3037.1448,N,09620.3915,W,0.25,264.97,300609,,,D*76
$GPGGA,215722.800,3037.1447,N,09620.3917,W,2,5,2.10,98.5,M,-23.3,M,0000,0000*59
$GPGSA,A,3,11,08,13,23,28,,,,,,,,2.67,2.10,1.64*00
$GPGSV,2,1,07,13,77,236,30,19,57,102,,23,47,167,33,48,36,235,49*70
$GPGSV,2,2,07,08,19,305,26,28,16,248,25,11,09,161,37*43
$GPRMC,215722.800,A,3037.1447,N,09620.3917,W,0.25,263.37,300609,,,D*78
$GPGGA,215723.000,3037.1447,N,09620.3919,W,2,5,2.10,98.1,M,-23.3,M,0000,0000*5A
$GPGSA,A,3,11,08,13,23,28,,,,,,,,2.67,2.10,1.64*00
$GPGSV,2,1,07,13,77,236,30,19,57,102,,23,47,167,33,48,36,235,49*70
$GPGSV,2,2,07,08,19,305,26,28,16,248,25,11,09,161,37*43
$GPRMC,215723.000,A,3037.1447,N,09620.3919,W,0.25,262.02,300609,,,D*78
$GPGGA,215723.200,3037.1448,N,09620.3920,W,2,5,2.10,97.6,M,-23.3,M,0000,0000*55
$GPGSA,A,3,11,08,13,23,28,,,,,,,,2.67,2.10,1.64*00
$GPGSV,2,1,07,13,77,236,30,19,57,102,,23,47,167,34,48,36,235,49*77
$GPGSV,2,2,07,08,19,305,26,28,16,248,25,11,09,161,37*43
$GPRMC,215723.200,A,3037.1448,N,09620.3920,W,0.25,261.00,300609,,,D*7E
$GPGGA,215723.400,3037.1449,N,09620.3922,W,2,5,2.10,97.0,M,-23.3,M,0000,0000*56
$GPGSA,A,3,11,08,13,23,28,,,,,,,,2.67,2.10,1.64*00
$GPGSV,2,1,07,13,77,236,30,19,57,102,,23,47,167,34,48,36,235,49*77
$GPGSV,2,2,07,08,19,305,26,28,16,248,25,11,09,161,37*43
$GPRMC,215723.400,A,3037.1449,N,09620.3922,W,0.25,260.98,300609,,,D*7B
$GPGGA,215723.600,3037.1450,N,09620.3923,W,2,5,2.10,96.6,M,-23.3,M,0000,0000*5A
$GPGSA,A,3,11,08,13,23,28,,,,,,,,2.67,2.10,1.64*00
$GPGSV,2,1,07,13,77,236,30,19,57,102,,23,47,167,34,48,36,235,49*77
$GPGSV,2,2,07,08,19,305,26,28,16,248,26,11,09,161,37*40
$GPRMC,215723.600,A,3037.1450,N,09620.3923,W,0.25,262.00,300609,,,D*73
$GPGGA,215723.800,3037.1451,N,09620.3924,W,2,5,2.10,96.3,M,-23.3,M,0000,0000*57
$GPGSA,A,3,11,08,13,23,28,,,,,,,,2.67,2.10,1.64*00
$GPGSV,2,1,07,13,77,236,30,19,57,102,,23,47,167,34,48,36,235,49*77
$GPGSV,2,2,07,08,19,305,26,28,16,248,26,11,09,161,37*40
$GPRMC,215723.800,A,3037.1451,N,09620.3924,W,0.25,263.05,300609,,,D*7F
$GPGGA,215724.000,3037.1452,N,09620.3925,W,2,5,2.10,96.1,M,-23.3,M,0000,0000*58
$GPGSA,A,3,11,08,13,23,28,,,,,,,,2.67,2.10,1.64*00
$GPGSV,2,1,07,13,77,236,30,19,57,102,,23,47,167,34,48,36,235,49*77
$GPGSV,2,2,07,08,19,305,26,28,16,248,26,11,09,161,37*40
$GPRMC,215724.000,A,3037.1452,N,09620.3925,W,0.25,264.46,300609,,,D*72
$GPGGA,215724.200,3037.1453,N,09620.3926,W,2,5,2.10,96.1,M,-23.3,M,0000,0000*58
$GPGSA,A,3,11,08,13,23,28,,,,,,,,2.67,2.10,1.64*00
$GPGSV,2,1,07,13,77,236,30,19,57,102,,23,47,167,34,48,36,235,49*77
$GPGSV,2,2,07,08,19,305,27,28,16,248,26,11,09,161,37*41
$GPRMC,215724.200,A,3037.1453,N,09620.3926,W,0.25,266.46,300609,,,D*70
$GPGGA,215724.400,3037.1453,N,09620.3927,W,2,5,2.10,96.0,M,-23.3,M,0000,0000*5E
$GPGSA,A,3,11,08,13,23,28,,,,,,,,2.67,2.10,1.64*00
$GPGSV,2,1,07,13,77,236,30,19,57,102,,23,47,167,34,48,36,235,49*77
$GPGSV,2,2,07,08,19,305,27,28,16,248,27,11,09,161,37*40
$GPRMC,215724.400,A,3037.1453,N,09620.3927,W,0.25,267.99,300609,,,D*74
$GPGGA,215724.600,3037.1453,N,09620.3928,W,2,5,2.10,95.9,M,-23.3,M,0000,0000*59
$GPGSA,A,3,11,08,13,23,28,,,,,,,,2.67,2.10,1.64*00
$GPGSV,2,1,07,13,77,236,30,19,57,102,,23,47,167,35,48,36,235,49*76
$GPGSV,2,2,07,08,19,305,27,28,16,248,27,11,09,161,37*40
$GPRMC,215724.600,A,3037.1453,N,09620.3928,W,0.25,268.46,300609,,,D*74
$GPGGA,215724.800,3037.1454,N,09620.3928,W,2,5,2.10,95.7,M,-23.3,M,0000,0000*5E
$GPGSA,A,3,11,08,13,23,28,,,,,,,,2.67,2.10,1.64*00
$GPGSV,2,1,07,13,77,236,30,19,57,102,,23,47,167,35,48,36,235,49*76
$GPGSV,2,2,07,08,19,305,27,28,16,248,27,11,09,161,37*40
$GPRMC,215724.800,A,3037.1454,N,09620.3928,W,0.25,269.23,300609,,,D*7F
$GPGGA,215725.000,3037.1455,N,09620.3927,W,2,5,2.10,95.5,M,-23.3,M,0000,0000*5B
$GPGSA,A,3,11,08,13,23,28,,,,,,,,2.67,2.10,1.64*00
$GPGSV,2,1,07,13,77,236,30,19,57,102,,23,47,167,35,48,36,235,49*76
$GPGSV,2,2,07,08,19,305,28,28,16,248,27,11,09,161,37*4F
$GPRMC,215725.000,A,3037.1455,N,09620.3927,W,0.25,270.18,300609,,,D*78
$GPGGA,215725.200,3037.1456,N,09620.3926,W,2,5,2.10,95.4,M,-23.3,M,0000,0000*5A
$GPGSA,A,3,11,08,13,23,28,,,,,,,,2.67,2.10,1.64*00
$GPGSV,2,1,07,13,77,236,30,19,57,102,,23,47,167,35,48,36,235,49*76
$GPGSV,2,2,07,08,19,305,28,28,16,248,28,11,09,161,36*41
$GPRMC,215725.200,A,3037.1456,N,09620.3926,W,0.25,271.62,300609,,,D*74
$GPGGA,215725.400,3037.1458,N,09620.3925,W,2,5,2.10,95.5,M,-23.3,M,0000,0000*50
$GPGSA,A,3,11,08,13,23,28,,,,,,,,2.67,2.10,1.64*00
$GPGSV,2,1,07,13,77,236,30,19,57,102,,23,47,167,35,48,36,235,49*76
$GPGSV,2,2,07,08,19,305,28,28,16,248,28,11,09,161,36*41
$GPRMC,215725.400,A,3037.1458,N,09620.3925,W,0.25,273.71,300609,,,D*7F
$GPGGA,215725.600,3037.1458,N,09620.3925,W,2,5,2.10,95.2,M,-23.3,M,0000,0000*55
$GPGSA,A,3,11,08,13,23,28,,,,,,,,2.67,2.10,1.64*00
$GPGSV,2,1,07,13,77,236,30,19,57,102,,23,47,167,35,48,36,235,49*76
$GPGSV,2,2,07,08,19,305,28,28,16,248,28,11,09,161,36*41
$GPRMC,215725.600,A,3037.1458,N,09620.3925,W,0.25,275.92,300609,,,D*76
$GPGGA,215725.800,3037.1458,N,09620.3925,W,2,5,2.10,94.8,M,-23.3,M,0000,0000*50
$GPGSA,A,3,11,08,13,23,28,,,,,,,,2.67,2.10,1.64*00
$GPGSV,2,1,07,13,77,236,30,19,57,102,,23,47,167,35,48,36,235,49*76
$GPGSV,2,2,07,08,19,305,28,28,16,248,28,11,09,161,36*41
$GPRMC,215725.800,A,3037.1458,N,09620.3925,W,0.25,277.27,300609,,,D*74
$GPGGA,215726.000,3037.1458,N,09620.3925,W,2,5,2.10,94.3,M,-23.3,M,0000,0000*50
$GPGSA,A,3,11,08,13,23,28,,,,,,,,2.67,2.10,1.64*00
$GPGSV,2,1,07,13,77,236,30,19,57,102,,23,47,167,35,48,36,235,49*76
$GPGSV,2,2,07,08,19,305,28,28,16,248,29,11,09,161,36*40
$GPRMC,215726.000,A,3037.1458,N,09620.3925,W,0.25,277.27,300609,,,D*7F
$GPGGA,215726.200,3037.1458,N,09620.3924,W,2,5,2.10,93.6,M,-23.3,M,0000,0000*51
$GPGSA,A,3,11,08,13,23,28,,,,,,,,2.67,2.10,1.64*00
$GPGSV,2,1,07,13,77,236,30,19,57,102,,23,47,167,35,48,36,235,49*76
$GPGSV,2,2,07,08,19,305,28,28,16,248,29,11,09,161,36*40
$GPRMC,215726.200,A,3037.1458,N,09620.3924,W,0.25,277.60,300609,,,D*7F
$GPGGA,215726.400,3037.1458,N,09620.3924,W,2,5,2.10,93.2,M,-23.3,M,0000,0000*53
$GPGSA,A,3,11,08,13,23,28,,,,,,,,2.67,2.10,1.64*00
$GPGSV,2,1,07,13,77,236,30,19,57,102,,23,47,167,35,48,36,235,49*76
$GPGSV,2,2,07,08,19,305,28,28,16,248,29,11,09,161,36*40
$GPRMC,215726.400,A,3037.1458,N,09620.3924,W,0.25,277.42,300609,,,D*79
$GPGGA,215726.600,3037.1458,N,09620.3924,W,2,5,2.10,92.8,M,-23.3,M,0000,0000*5A
$GPGSA,A,3,11,08,13,23,28,,,,,,,,2.67,2.10,1.64*00
$GPGSV,2,1,07,13,77,236,30,19,57,102,,23,47,167,35,48,36,235,49*76
$GPGSV,2,2,07,08,19,305,28,28,16,248,29,11,09,161,36*40
$GPRMC,215726.600,A,3037.1458,N,09620.3924,W,0.25,276.74,300609,,,D*7F
$GPGGA,215726.800,3037.1458,N,09620.3924,W,2,5,2.10,92.6,M,-23.3,M,0000,0000*5A
$GPGSA,A,3,11,08,13,23,28,,,,,,,,2.67,2.10,1.64*00
$GPGSV,2,1,07,13,77,236,30,19,57,102,,23,47,167,35,48,36,235,49*76
$GPGSV,2,2,07,08,19,305,28,28,16,248,29,11,09,161,36*40
$GPRMC,215726.800,A,3037.1458,N,09620.3924,W,0.25,275.00,300609,,,D*71
$GPGGA,215727.000,3037.1458,N,09620.3924,W,2,5,2.10,92.4,M,-23.3,M,0000,0000*51
$GPGSA,A,3,11,08,13,23,28,,,,,,,,2.67,2.10,1.64*00
$GPGSV,2,1,07,13,77,236,30,19,57,102,,23,47,167,35,48,36,235,49*76
$GPGSV,2,2,07,08,19,305,28,28,16,248,29,11,09,161,36*40
$GPRMC,215727.000,A,3037.1458,N,09620.3924,W,0.25,273.59,300609,,,D*72
$GPGGA,215727.200,3037.1459,N,09620.3922,W,2,5,2.10,92.3,M,-23.3,M,0000,0000*53
$GPGSA,A,3,11,08,13,23,28,,,,,,,,2.67,2.10,1.64*00
$GPGSV,2,1,07,13,77,236,30,19,57,102,,23,47,167,35,48,36,235,49*76
$GPGSV,2,2,07,08,19,305,28,28,16,248,29,11,09,161,36*40
$GPRMC,215727.200,A,3037.1459,N,09620.3922,W,0.25,273.32,300609,,,D*7A
$GPGGA,215727.400,3037.1460,N,09620.3920,W,2,5,2.10,92.2,M,-23.3,M,0000,0000*5C
$GPGSA,A,3,11,08,13,23,28,,,,,,,,2.67,2.10,1.64*00
$GPGSV,2,1,07,13,77,236,30,19,57,102,,23,47,167,35,48,36,235,49*76
$GPGSV,2,2,07,08,19,305,28,28,16,248,29,11,09,161,36*40
$GPRMC,215727.400,A,3037.1460,N,09620.3920,W,0.25,273.61,300609,,,D*72
$GPGGA,215727.600,3037.1461,N,09620.3919,W,2,5,2.10,92.1,M,-23.3,M,0000,0000*56
$GPGSA,A,3,11,08,13,23,28,,,,,,,,2.67,2.10,1.64*00
$GPGSV,2,1,07,13,77,236,30,19,57,102,,23,47,167,35,48,36,235,49*76
$GPGSV,2,2,07,08,19,305,28,28,16,248,29,11,09,161,36*40
$GPRMC,215727.600,A,3037.1461,N,09620.3919,W,0.25,274.43,300609,,,D*7C
$GPGGA,215727.800,3037.1462,N,09620.3918,W,2,5,2.10,91.9,M,-23.3,M,0000,0000*51
$GPGSA,A,3,11,08,13,23,28,,,,,,,,2.67,2.10,1.64*00
$GPGSV,2,1,07,13,77,236,30,19,57,102,,23,47,167,35,48,36,235,49*76
$GPGSV,2,2,07,08,19,305,28,28,16,248,29,11,09,161,36*40
$GPRMC,215727.800,A,3037.1462,N,09620.3918,W,0.25,275.65,300609,,,D*75
$GPGGA,215728.000,3037.1463,N,09620.3918,W,2,5,2.10,91.6,M,-23.3,M,0000,0000*58
$GPGSA,A,3,11,08,13,23,28,,,,,,,,2.67,2.10,1.64*00
$GPGSV,2,1,07,13,77,236,30,19,57,102,,23,47,167,35,48,36,235,49*76
$GPGSV,2,2,07,08,19,305,28,28,16,248,29,11,09,161,36*40
$GPRMC,215728.000,A,3037.1463,N,09620.3918,W,0.25,276.10,300609,,,D*72
$GPGGA,215728.200,3037.1463,N,09620.3918,W,2,5,2.10,91.3,M,-23.3,M,0000,0000*5F
$GPGSA,A,3,11,08,13,23,28,,,,,,,,2.67,2.10,1.64*00
$GPGSV,2,1,07,13,77,236,29,19,57,102,,23,47,167,35,48,36,235,48*7F
$GPGSV,2,2,07,08,19,305,28,28,16,248,29,11,09,161,36*40
$GPRMC,215728.200,A,3037.1463,N,09620.3918,W,0.25,276.10,300609,,,D*70
$GPGGA,215728.400,3037.1464,N,09620.3914,W,2,5,2.10,91.2,M,-23.3,M,0000,0000*53
$GPGSA,A,3,11,08,13,23,28,,,,,,,,2.67,2.10,1.64*00
$GPGSV,2,1,07,13,77,236,28,19,57,102,,23,47,167,34,48,36,235,48*7F
$GPGSV,2,2,07,08,19,305,28,28,16,248,30,11,09,161,36*48
$GPRMC,215728.400,A,3037.1464,N,09620.3914,W,0.25,276.10,300609,,,D*7D
$GPGGA,215728.600,3037.1468,N,09620.3905,W,2,5,2.10,91.0,M,-23.3,M,0000,0000*5F
$GPGSA,A,3,11,08,13,23,28,,,,,,,,2.67,2.10,1.64*00
$GPGSV,2,1,07,13,77,236,28,19,57,102,,23,47,167,33,48,36,235,48*78
$GPGSV,2,2,07,08,19,305,28,28,16,248,39,11,09,161,35*42
$GPRMC,215728.600,A,3037.1468,N,09620.3905,W,0.25,276.10,300609,,,D*73
$GPGGA,215728.800,3037.1472,N,09620.3897,W,2,5,2.10,90.8,M,-23.3,M,0000,0000*59
$GPGSA,A,3,11,08,13,23,28,,,,,,,,2.67,2.10,1.65*01
$GPGSV,2,1,07,13,77,236,28,19,57,102,,23,47,167,33,48,36,235,46*76
$GPGSV,2,2,07,08,19,305,21,28,16,248,39,11,09,161,34*4A
$GPRMC,215728.800,A,3037.1472,N,09620.3897,W,0.16,276.10,300609,,,D*7C
$GPGGA,215729.000,3037.1476,N,09620.3891,W,2,5,2.10,90.7,M,-23.3,M,0000,0000*5D
