$GPGGA,162908.700,3216.9182,N,10644.9324,W,1,10,0.84,1201.4,M,-26.1,M,,*61
$GPGSA,M,3,21,18,22,15,27,29,14,06,03,24,,,1.18,0.84,0.82*06
$GPGSV,4,1,13,21,70,090,37,18,64,003,47,22,50,293,48,06,36,293,47*75
$GPGSV,4,2,13,14,34,205,44,27,30,304,43,15,28,045,43,24,25,097,43*7E
$GPGSV,4,3,13,03,17,310,45,29,13,169,36,19,03,325,23,16,01,270,25*72
$GPGSV,4,4,13,34,,,*7C
$GPRMC,162908.700,A,3216.9182,N,10644.9324,W,0.01,178.30,130214,,,A*79
$GPGGA,162908.900,3216.9182,N,10644.9324,W,1,10,0.84,1201.4,M,-26.1,M,,*6F
$GPGSA,M,3,21,18,22,15,27,29,14,06,03,24,,,1.18,0.84,0.82*06
$GPGSV,4,1,13,21,70,090,37,18,64,003,47,22,50,293,48,06,36,293,47*75
$GPGSV,4,2,13,14,34,205,44,27,30,304,43,15,28,045,43,24,25,097,43*7E
$GPGSV,4,3,13,03,17,310,45,29,13,169,36,19,03,325,24,16,01,270,25*75
$GPGSV,4,4,13,34,,,*7C
$GPRMC,162908.900,A,3216.9182,N,10644.9324,W,0.00,178.30,130214,,,A*76
$GPGGA,162909.000,3216.9182,N,10644.9324,W,1,10,0.84,1201.4,M,-26.1,M,,*67
$GPGSA,M,3,21,18,22,15,27,29,14,06,03,24,,,1.18,0.84,0.82*06
$GPGSV,4,1,13,21,70,090,37,18,64,003,47,22,50,293,48,06,36,293,47*75
$GPGSV,4,2,13,14,34,205,44,27,30,304,43,15,28,045,43,24,25,097,43*7E
$GPGSV,4,3,13,03,17,310,45,29,13,169,36,19,03,325,24,16,01,270,25*75
$GPGSV,4,4,13,34,,,*7C
$GPRMC,162909.000,A,3216.9182,N,10644.9324,W,0.01,178.30,130214,,,A*7F
$GPGGA,162909.100,3216.9182,N,10644.9324,W,1,10,0.84,1201.4,M,-26.1,M,,*66
$GPGSA,M,3,21,18,22,15,27,29,14,06,03,24,,,1.18,0.84,0.82*06
$GPGSV,4,1,13,21,70,090,37,18,64,003,47,22,50,293,48,06,36,293,47*75
$GPGSV,4,2,13,14,34,205,44,27,30,304,43,15,28,045,43,24,25,097,43*7E
$GPGSV,4,3,13,03,17,310,45,29,13,169,36,19,03,325,24,16,01,270,25*75
$GPGSV,4,4,13,34,,,*7C
$GPRMC,162909.100,A,3216.9182,N,10644.9324,W,0.02,178.30,130214,,,A*7D
$GPGGA,162909.200,3216.9182,N,10644.9324,W,1,10,0.84,1201.4,M,-26.1,M,,*65
$GPGSA,M,3,21,18,22,15,27,29,14,06,03,24,,,1.18,0.84,0.82*06
$GPGSV,4,1,13,21,70,090,37,18,64,003,47,22,50,293,48,06,36,293,47*75
$GPGSV,4,2,13,14,34,205,44,27,30,304,43,15,28,045,43,24,25,097,43*7E
$GPGSV,4,3,13,03,17,310,45,29,13,169,36,19,03,325,24,16,01,270,25*75
$GPGSV,4,4,13,34,,,*7C
$GPRMC,162909.200,A,3216.9182,N,10644.9324,W,0.02,178.30,130214,,,A*7E
$GPGGA,162909.300,3216.9182,N,10644.9324,W,1,10,0.84,1201.4,M,-26.1,M,,*64
$GPGSA,M,3,21,18,22,15,27,29,14,06,03,24,,,1.18,0.84,0.82*06
$GPGSV,4,1,13,21,70,090,37,18,64,003,47,22,50,293,48,06,36,293,47*75
$GPGSV,4,2,13,14,34,205,44,27,30,304,43,15,28,045,43,24,25,097,43*7E
$GPGSV,4,3,13,03,17,310,45,29,13,169,36,19,03,325,24,16,01,270,26*76
$GPGSV,4,4,13,34,,,*7C
$GPRMC,162909.300,A,3216.9182,N,10644.9324,W,0.00,178.30,130214,,,A*7D
$GPGGA,162909.400,3216.9182,N,10644.9324,W,1,10,0.84,1201.4,M,-26.1,M,,*63
$GPGSA,M,3,21,18,22,15,27,29,14,06,03,24,,,1.18,0.84,0.82*06
$GPGSV,4,1,13,21,70,090,37,18,64,003,47,22,50,293,48,06,36,293,47*75
$GPGSV,4,2,13,14,34,205,44,27,30,304,43,15,28,045,43,24,25,097,43*7E
$GPGSV,4,3,13,03,17,310,45,29,13,169,36,19,03,325,24,16,01,270,26*76
$GPGSV,4,4,13,34,,,*7C
$GPRMC,162909.400,A,3216.9182,N,10644.9324,W,0.01,178.30,130214,,,A*7B
$GPGGA,162909.500,3216.9182,N,10644.9324,W,1,10,0.84,1201.4,M,-26.1,M,,*62
$GPGSA,M,3,21,18,22,15,27,29,14,06,03,24,,,1.18,0.84,0.82*06
$GPGSV,4,1,13,21,70,090,37,18,64,003,47,22,50,293,48,06,36,293,47*75
$GPGSV,4,2,13,14,34,205,44,27,30,304,43,15,28,045,43,24,25,097,43*7E
$GPGSV,4,3,13,03,17,310,45,29,13,169,36,19,03,325,24,16,01,270,26*76
$GPGSV,4,4,13,34,,,*7C
$GPRMC,162909.500,A,3216.9182,N,10644.9324,W,0.02,178.30,130214,,,A*79
$GPGGA,162909.600,3216.9182,N,10644.9324,W,1,10,0.85,1201.4,M,-26.1,M,,*60
$GPGSA,M,3,21,18,22,15,27,29,14,06,03,24,,,1.68,0.85,1.45*0A
$GPGSV,4,1,13,21,70,090,37,18,64,003,47,22,50,293,48,06,36,293,47*75
$GPGSV,4,2,13,14,34,205,44,27,31,304,43,15,28,045,43,24,25,097,43*7F
$GPGSV,4,3,13,03,17,310,45,29,13,169,36,19,03,325,24,16,01,270,26*76
$GPGSV,4,4,13,34,,,*7C
$GPRMC,162909.600,A,3216.9182,N,10644.9324,W,0.02,178.30,130214,,,A*7A
$GPGGA,162909.700,3216.9182,N,10644.9324,W,1,10,0.84,1201.4,M,-26.1,M,,*60
$GPGSA,M,3,21,18,22,15,27,29,14,06,03,24,,,1.18,0.84,0.82*06
$GPGSV,4,1,13,21,70,090,37,18,64,003,47,22,50,293,48,06,36,293,47*75
$GPGSV,4,2,13,14,34,205,44,27,31,304,43,15,28,045,43,24,25,097,43*7F
$GPGSV,4,3,13,03,17,310,45,29,13,169,36,19,03,325,24,16,01,270,26*76
$GPGSV,4,4,13,34,,,*7C
$GPRMC,162909.700,A,3216.9182,N,10644.9324,W,0.01,178.30,130214,,,A*78
$GPGGA,162909.800,3216.9182,N,10644.9324,W,1,10,0.84,1201.4,M,-26.1,M,,*6F
$GPGSA,M,3,21,18,22,15,27,29,14,06,03,24,,,1.18,0.84,0.82*06
$GPGSV,4,1,13,21,70,090,37,18,64,003,47,22,50,293,48,06,36,293,47*75
$GPGSV,4,2,13,14,34,205,44,27,31,304,43,15,28,045,43,24,25,097,43*7F
$GPGSV,4,3,13,03,17,310,45,29,13,169,36,19,03,325,24,16,01,270,26*76
$GPGSV,4,4,13,34,,,*7C
$GPRMC,162909.800,A,3216.9182,N,10644.9324,W,0.01,178.30,130214,,,A*77
$GPGGA,162909.900,3216.9182,N,10644.9324,W,1,10,0.84,1201.4,M,-26.1,M,,*6E
$GPGSA,M,3,21,18,22,15,27,29,14,06,03,24,,,1.18,0.84,0.82*06
$GPGSV,4,1,13,21,70,090,37,18,64,003,47,22,50,293,48,06,36,293,47*75
$GPGSV,4,2,13,14,34,205,44,27,31,304,43,15,28,045,43,24,25,097,43*7F
$GPGSV,4,3,13,03,17,310,45,29,13,169,36,19,03,325,24,16,01,270,27*77
$GPGSV,4,4,13,34,,,*7C
$GPRMC,162909.900,A,3216.9182,N,10644.9324,W,0.01,178.30,130214,,,A*76
$GPGGA,162910.000,3216.9182,N,10644.9324,W,1,10,0.84,1201.4,M,-26.1,M,,*6F
$GPGSA,M,3,21,18,22,15,27,29,14,06,03,24,,,1.18,0.84,0.82*06
$GPGSV,4,1,13,21,70,090,37,18,64,003,47,22,50,293,48,06,36,293,47*75
$GPGSV,4,2,13,14,34,205,44,27,31,304,43,15,28,045,43,24,25,097,43*7F
$GPGSV,4,3,13,03,17,310,45,29,13,169,36,19,03,325,24,16,01,270,27*77
$GPGSV,4,4,13,34,,,*7C
$GPRMC,162910.000,A,3216.9182,N,10644.9324,W,0.01,178.30,130214,,,A*77
$GPGGA,162910.100,3216.9182,N,10644.9324,W,1,10,0.84,1201.4,M,-26.1,M,,*6E
$GPGSA,M,3,21,18,22,15,27,29,14,06,03,24,,,1.18,0.84,0.82*06
$GPGSV,4,1,13,21,70,090,37,18,64,003,47,22,50,293,48,06,36,293,47*75
$GPGSV,4,2,13,14,34,205,44,27,31,304,43,15,28,045,43,24,25,097,43*7F
$GPGSV,4,3,13,03,17,310,45,29,13,169,36,19,03,325,24,16,01,270,27*77
$GPGSV,4,4,13,34,,,*7C
$GPRMC,162910.100,A,3216.9182,N,10644.9324,W,0.01,178.30,130214,,,A*76
$GPGGA,162910.200,3216.9182,N,10644.9324,W,1,10,0.84,1201.4,M,-26.1,M,,*6D
$GPGSA,M,3,21,18,22,15,27,29,14,06,03,24,,,1.18,0.84,0.82*06
$GPGSV,4,1,13,21,70,090,37,18,64,003,47,22,50,293,48,06,36,293,47*75
$GPGSV,4,2,13,14,34,205,44,27,31,304,43,15,28,045,43,24,25,097,43*7F
$GPGSV,4,3,13,03,17,310,45,29,13,169,36,19,03,325,23,16,01,270,27*70
$GPGSV,4,4,13,34,,,*7C
$GPRMC,162910.200,A,3216.9182,N,10644.9324,W,0.02,178.30,130214,,,A*76
$GPGGA,162910.300,3216.9182,N,10644.9324,W,1,10,0.84,1201.4,M,-26.1,M,,*6C
$GPGSA,M,3,21,18,22,15,27,29,14,06,03,24,,,1.18,0.84,0.82*06
$GPGSV,4,1,13,21,70,090,37,18,64,003,47,22,50,293,48,06,36,293,47*75
$GPGSV,4,2,13,14,34,205,44,27,31,304,43,15,28,045,43,24,25,097,43*7F
$GPGSV,4,3,13,03,17,310,45,29,13,169,36,19,03,325,23,16,01,270,27*70
$GPGSV,4,4,13,34,,,*7C
$GPRMC,162910.300,A,3216.9182,N,10644.9324,W,0.00,178.30,130214,,,A*75
$GPGGA,162910.400,3216.9182,N,10644.9324,W,1,10,0.85,1201.4,M,-26.1,M,,*6A
$GPGSA,M,3,21,18,22,15,27,29,14,06,03,24,,,1.68,0.85,1.45*0A
$GPGSV,4,1,13,21,70,090,37,18,64,003,47,22,50,293,48,06,36,293,47*75
$GPGSV,4,2,13,14,34,205,44,27,31,304,43,15,28,045,43,24,25,097,43*7F
$GPGSV,4,3,13,03,17,310,45,29,13,169,36,19,03,325,23,16,01,270,27*70
$GPGSV,4,4,13,34,,,*7C
$GPRMC,162910.400,A,3216.9182,N,10644.9324,W,0.01,178.30,130214,,,A*73
$GPGGA,162910.500,3216.9182,N,10644.9324,W,1,10,0.84,1201.4,M,-26.1,M,,*6A
$GPGSA,M,3,21,18,22,15,27,29,14,06,03,24,,,1.18,0.84,0.82*06
$GPGSV,4,1,13,21,70,090,37,18,64,003,47,22,50,293,48,06,36,293,47*75
$GPGSV,4,2,13,14,34,205,44,27,31,304,43,15,28,045,43,24,25,097,43*7F
$GPGSV,4,3,13,03,17,310,45,29,13,169,36,19,03,325,23,16,01,270,27*70
$GPGSV,4,4,13,34,,,*7C
$GPRMC,162910.500,A,3216.9182,N,10644.9324,W,0.01,178.30,130214,,,A*72
$GPGGA,162910.600,3216.9182,N,10644.9324,W,1,10,0.84,1201.4,M,-26.1,M,,*69
$GPGSA,M,3,21,18,22,15,27,29,14,06,03,24,,,1.18,0.84,0.82*06
$GPGSV,4,1,13,21,70,090,37,18,64,003,47,22,50,293,48,06,36,293,47*75
$GPGSV,4,2,13,14,34,205,44,27,31,304,43,15,28,045,43,24,25,097,43*7F
$GPGSV,4,3,13,03,17,310,45,29,13,169,36,19,03,325,23,16,01,270,27*70
$GPGSV,4,4,13,34,,,*7C
$GPRMC,162910.600,A,3216.9182,N,10644.9324,W,0.01,178.30,130214,,,A*71
$GPGGA,162910.700,3216.9182,N,10644.9324,W,1,10,0.84,1201.4,M,-26.1,M,,*68
$GPGSA,M,3,21,18,22,15,27,29,14,06,03,24,,,1.18,0.84,0.82*06
$GPGSV,4,1,13,21,70,090,37,18,64,003,47,22,50,293,48,06,36,293,47*75
$GPGSV,4,2,13,14,34,205,44,27,31,304,43,15,28,045,43,24,25,097,43*7F
$GPGSV,4,3,13,03,17,310,45,29,13,169,36,19,03,325,23,16,01,270,27*70
$GPGSV,4,4,13,34,,,*7C
$GPRMC,162910.700,A,3216.9182,N,10644.9324,W,0.00,178.30,130214,,,A*71
$GPGGA,162910.800,3216.9182,N,10644.9324,W,1,10,0.84,1201.4,M,-26.1,M,,*67
$GPGSA,M,3,21,18,22,15,27,29,14,06,03,24,,,1.18,0.84,0.82*06
$GPGSV,4,1,13,21,70,090,37,18,64,003,47,22,50,293,48,06,36,293,47*75
$GPGSV,4,2,13,14,34,205,44,27,31,304,43,15,28,045,43,24,25,097,43*7F
$GPGSV,4,3,13,03,17,310,45,29,13,169,36,19,03,325,23,16,01,270,27*70
$GPGSV,4,4,13,34,,,*7C
$GPRMC,162910.800,A,3216.9182,N,10644.9324,W,0.01,178.30,130214,,,A*7F
$GPGGA,162910.900,3216.9182,N,10644.9324,W,1,10,0.84,1201.4,M,-26.1,M,,*66
$GPGSA,M,3,21,18,22,15,27,29,14,06,03,24,,,1.18,0.84,0.82*06
$GPGSV,4,1,13,21,70,090,37,18,64,003,47,22,50,293,48,06,36,293,47*75
$GPGSV,4,2,13,14,34,205,44,27,31,304,43,15,28,045,43,24,25,097,43*7F
$GPGSV,4,3,13,03,17,310,45,29,13,169,36,19,03,325,25,16,01,270,27*76
$GPGSV,4,4,13,34,,,*7C
$GPRMC,162910.900,A,3216.9182,N,10644.9324,W,0.00,178.30,130214,,,A*7F
$GPGGA,162911.000,3216.9182,N,10644.9324,W,1,10,0.84,1201.4,M,-26.1,M,,*6E
$GPGSA,M,3,21,18,22,15,27,29,14,06,03,24,,,1.18,0.84,0.82*06
$GPGSV,4,1,13,21,70,090,37,18,64,003,47,22,50,293,48,06,36,293,47*75
$GPGSV,4,2,13,14,34,205,44,27,31,304,43,15,28,045,43,24,25,097,43*7F
$GPGSV,4,3,13,03,17,310,45,29,13,169,36,19,03,325,25,16,01,270,27*76
$GPGSV,4,4,13,34,,,*7C
$GPRMC,162911.000,A,3216.9182,N,10644.9324,W,0.01,178.30,130214,,,A*76
$GPGGA,162911.100,3216.9182,N,10644.9324,W,1,10,0.84,1201.4,M,-26.1,M,,*6F
$GPGSA,M,3,21,18,22,15,27,29,14,06,03,24,,,1.18,0.84,0.82*06
$GPGSV,4,1,13,21,70,090,37,18,64,003,47,22,50,293,48,06,36,293,47*75
$GPGSV,4,2,13,14,34,205,44,27,31,304,43,15,28,045,43,24,25,097,43*7F
$GPGSV,4,3,13,03,17,310,45,29,13,169,36,19,03,325,25,16,01,270,27*76
$GPGSV,4,4,13,34,,,*7C
$GPRMC,162911.100,A,3216.9182,N,10644.9324,W,0.00,178.30,130214,,,A*76
$GPGGA,162911.200,3216.9182,N,10644.9324,W,1,10,0.84,1201.4,M,-26.1,M,,*6C
$GPGSA,M,3,21,18,22,15,27,29,14,06,03,24,,,1.18,0.84,0.82*06
$GPGSV,4,1,13,21,70,090,37,18,64,003,47,22,50,293,48,06,36,293,47*75
$GPGSV,4,2,13,14,34,205,44,27,31,304,43,15,28,045,43,24,25,097,43*7F
$GPGSV,4,3,13,03,17,310,45,29,13,169,36,19,03,325,25,16,01,270,27*76
$GPGSV,4,4,13,34,,,*7C
$GPRMC,162911.200,A,3216.9182,N,10644.9324,W,0.02,178.30,130214,,,A*77
$GPGGA,162911.300,3216.9182,N,10644.9324,W,1,10,0.84,1201.4,M,-26.1,M,,*6D
$GPGSA,M,3,21,18,22,15,27,29,14,06,03,24,,,1.18,0.84,0.82*06
$GPGSV,4,1,13,21,70,090,37,18,64,003,47,22,50,293,48,06,36,293,47*75
$GPGSV,4,2,13,14,34,205,44,27,31,304,43,15,28,045,43,24,25,097,43*7F
$GPGSV,4,3,13,03,17,310,45,29,13,169,36,19,03,325,25,16,01,270,27*76
$GPGSV,4,4,13,34,,,*7C
$GPRMC,162911.300,A,3216.9182,N,10644.9324,W,0.01,178.30,130214,,,A*75
$GPGGA,162911.400,3216.9182,N,10644.9324,W,1,10,0.84,1201.4,M,-26.1,M,,*6A
$GPGSA,M,3,21,18,22,15,27,29,14,06,03,24,,,1.18,0.84,0.82*06
$GPGSV,4,1,13,21,70,090,37,18,64,003,47,22,50,293,48,06,36,293,47*75
$GPGSV,4,2,13,14,34,205,44,27,31,304,43,15,28,045,43,24,25,097,43*7F
$GPGSV,4,3,13,03,17,310,45,29,13,169,36,19,03,325,25,16,01,270,27*76
$GPGSV,4,4,13,34,,,*7C
$GPRMC,162911.400,A,3216.9182,N,10644.9324,W,0.02,178.30,130214,,,A*71
$GPGGA,162911.500,3216.9182,N,10644.9324,W,1,10,0.84,1201.4,M,-26.1,M,,*6B
$GPGSA,M,3,21,18,22,15,27,29,14,06,03,24,,,1.18,0.84,0.82*06
$GPGSV,4,1,13,21,70,090,37,18,64,003,47,22,50,293,48,06,36,293,47*75
$GPGSV,4,2,13,14,34,205,44,27,31,304,43,15,28,045,43,24,25,097,43*7F
$GPGSV,4,3,13,03,17,310,45,29,13,169,36,19,03,325,25,16,01,270,27*76
$GPGSV,4,4,13,34,,,*7C
$GPRMC,162911.500,A,3216.9182,N,10644.9324,W,0.01,178.30,130214,,,A*73
$GPGGA,162911.600,3216.9182,N,10644.9324,W,1,10,0.84,1201.4,M,-26.1,M,,*68
$GPGSA,M,3,21,18,22,15,27,29,14,06,03,24,,,1.18,0.84,0.82*06
$GPGSV,4,1,13,21,70,090,37,18,64,003,47,22,50,293,48,06,36,293,47*75
$GPGSV,4,2,13,14,34,205,44,27,31,304,43,15,28,045,43,24,25,097,43*7F
$GPGSV,4,3,13,03,17,310,45,29,13,169,36,19,03,325,25,16,01,270,27*76
$GPGSV,4,4,13,34,,,*7C
$GPRMC,162911.600,A,3216.9182,N,10644.9324,W,0.02,178.30,130214,,,A*73
$GPGGA,162911.700,3216.9182,N,10644.9324,W,1,10,0.84,1201.4,M,-26.1,M,,*69
$GPGSA,M,3,21,18,22,15,27,29,14,06,03,24,,,1.18,0.84,0.82*06
$GPGSV,4,1,13,21,70,090,37,18,64,003,47,22,50,293,48,06,36,293,47*75
$GPGSV,4,2,13,14,34,205,44,27,31,304,43,15,28,045,43,24,25,097,43*7F
$GPGSV,4,3,13,03,17,310,45,29,13,169,36,19,03,325,25,16,01,270,27*76
$GPGSV,4,4,13,34,,,*7C
$GPRMC,162911.700,A,3216.9182,N,10644.9324,W,0.01,178.30,130214,,,A*71
$GPGGA,162911.800,3216.9182,N,10644.9324,W,1,10,0.84,1201.4,M,-26.1,M,,*66
$GPGSA,M,3,21,18,22,15,27,29,14,06,03,24,,,1.18,0.84,0.82*06
$GPGSV,4,1,13,21,70,090,37,18,64,003,47,22,50,293,48,06,36,293,47*75
$GPGSV,4,2,13,14,34,205,44,27,31,304,43,15,28,045,43,24,25,097,43*7F
$GPGSV,4,3,13,03,17,310,45,29,13,169,36,19,03,325,25,16,01,270,27*76
$GPGSV,4,4,13,34,,,*7C
$GPRMC,162911.800,A,3216.9182,N,10644.9324,W,0.02,178.30,130214,,,A*7D
$GPGGA,162911.900,3216.9182,N,10644.9324,W,1,10,0.84,1201.4,M,-26.1,M,,*67
$GPGSA,M,3,21,18,22,15,27,29,14,06,03,24,,,1.18,0.84,0.82*06
$GPGSV,4,1,13,21,70,090,37,18,64,003,47,22,50,293,48,06,36,293,47*75
$GPGSV,4,2,13,14,34,205,44,27,31,304,43,15,28,045,43,24,25,097,43*7F
$GPGSV,4,3,13,03,17,310,45,29,13,169,36,19,03,325,25,16,01,270,27*76
$GPGSV,4,4,13,34,,,*7C
$GPRMC,162911.900,A,3216.9182,N,10644.9324,W,0.01,178.30,130214,,,A*7F
$GPGGA,162912.000,3216.9182,N,10644.9324,W,1,10,0.84,1201.4,M,-26.1,M,,*6D
$GPGSA,M,3,21,18,22,15,27,29,14,06,03,24,,,1.18,0.84,0.82*06
$GPGSV,4,1,13,21,70,090,37,18,64,003,47,22,50,293,48,06,36,293,47*75
$GPGSV,4,2,13,14,34,205,44,27,31,304,43,15,28,045,43,24,25,097,43*7F
$GPGSV,4,3,13,03,17,310,45,29,13,169,36,19,03,325,25,16,01,270,27*76
$GPGSV,4,4,13,34,,,*7C
$GPRMC,162912.000,A,3216.9182,N,10644.9324,W,0.01,178.30,130214,,,A*75
$GPGGA,162912.100,3216.9182,N,10644.9324,W,1,10,0.84,1201.4,M,-26.1,M,,*6C
$GPGSA,M,3,21,18,22,15,27,29,14,06,03,24,,,1.18,0.84,0.82*06
$GPGSV,4,1,13,21,70,090,37,18,64,003,47,22,50,293,48,06,36,293,47*75
$GPGSV,4,2,13,14,34,205,44,27,31,304,43,15,28,045,43,24,25,097,43*7F
$GPGSV,4,3,13,03,17,310,45,29,13,169,36,19,03,325,25,16,01,270,27*76
$GPGSV,4,4,13,34,,,*7C
$GPRMC,162912.100,A,3216.9182,N,10644.9324,W,0.01,178.30,130214,,,A*74
$GPGGA,162912.200,3216.9182,N,10644.9324,W,1,10,0.84,1201.4,M,-26.1,M,,*6F
$GPGSA,M,3,21,18,22,15,27,29,14,06,03,24,,,1.18,0.84,0.82*06
$GPGSV,4,1,13,21,70,090,37,18,64,003,47,22,50,293,48,06,36,293,47*75
$GPGSV,4,2,13,14,34,205,44,27,31,304,43,15,28,045,43,24,25,097,43*7F
$GPGSV,4,3,13,03,17,310,45,29,13,169,36,19,03,325,25,16,01,270,28*79
$GPGSV,4,4,13,34,,,*7C
$GPRMC,162912.200,A,3216.9182,N,10644.9324,W,0.01,178.30,130214,,,A*77
$GPGGA,162912.300,3216.9182,N,10644.9324,W,1,10,0.84,1201.4,M,-26.1,M,,*6E
$GPGSA,M,3,21,18,22,15,27,29,14,06,03,24,,,1.18,0.84,0.82*06
$GPGSV,4,1,13,21,70,090,37,18,64,003,47,22,50,293,48,06,36,293,47*75
$GPGSV,4,2,13,14,34,205,44,27,31,304,43,15,28,045,43,24,25,097,43*7F
$GPGSV,4,3,13,03,17,310,45,29,13,169,36,19,03,325,25,16,01,270,28*79
$GPGSV,4,4,13,34,,,*7C
$GPRMC,162912.300,A,3216.9182,N,10644.9324,W,0.02,178.30,130214,,,A*75
$GPGGA,162912.400,3216.9182,N,10644.9324,W,1,10,0.84,1201.4,M,-26.1,M,,*69
$GPGSA,M,3,21,18,22,15,27,29,14,06,03,24,,,1.18,0.84,0.82*06
$GPGSV,4,1,13,21,70,090,37,18,64,003,47,22,50,293,48,06,36,293,47*75
$GPGSV,4,2,13,14,34,205,44,27,31,304,43,15,28,045,43,24,25,097,43*7F
$GPGSV,4,3,13,03,17,310,45,29,13,169,36,19,03,325,25,16,01,270,28*79
$GPGSV,4,4,13,34,,,*7C
$GPRMC,162912.400,A,3216.9182,N,10644.9324,W,0.01,178.30,130214,,,A*71
$GPGGA,162912.500,3216.9182,N,10644.9324,W,1,10,0.84,1201.4,M,-26.1,M,,*68
$GPGSA,M,3,21,18,22,15,27,29,14,06,03,24,,,1.18,0.84,0.82*06
$GPGSV,4,1,13,21,70,090,37,18,64,003,47,22,50,293,48,06,36,293,47*75
$GPGSV,4,2,13,14,34,205,44,27,31,304,43,15,28,045,43,24,25,097,43*7F
$GPGSV,4,3,13,03,17,310,45,29,13,169,36,19,03,325,25,16,01,270,28*79
$GPGSV,4,4,13,34,,,*7C
$GPRMC,162912.500,A,3216.9182,N,10644.9324,W,0.03,178.30,130214,,,A*72
$GPGGA,162912.600,3216.9182,N,10644.9324,W,1,10,0.84,1201.4,M,-26.1,M,,*6B
$GPGSA,M,3,21,18,22,15,27,29,14,06,03,24,,,1.18,0.84,0.82*06
$GPGSV,4,1,13,21,70,090,37,18,64,003,47,22,50,293,48,06,36,293,47*75
$GPGSV,4,2,13,14,34,205,44,27,31,304,43,15,28,045,43,24,25,097,43*7F
$GPGSV,4,3,13,03,17,310,45,29,13,169,36,19,03,325,25,16,01,270,28*79
$GPGSV,4,4,13,34,,,*7C
$GPRMC,162912.600,A,3216.9182,N,10644.9324,W,0.02,178.30,130214,,,A*70
$GPGGA,162912.700,3216.9182,N,10644.9324,W,1,10,0.85,1201.4,M,-26.1,M,,*6B
$GPGSA,M,3,21,18,22,15,27,29,14,06,03,24,,,1.68,0.85,1.45*0A
$GPGSV,4,1,13,21,70,090,37,18,64,003,47,22,50,293,48,06,36,293,47*75
$GPGSV,4,2,13,14,34,205,44,27,31,304,43,15,28,045,43,24,25,097,44*78
$GPGSV,4,3,13,03,17,310,45,29,13,169,36,19,03,325,25,16,01,270,28*79
$GPGSV,4,4,13,34,,,*7C
$GPRMC,162912.700,A,3216.9182,N,10644.9324,W,0.01,178.30,130214,,,A*72
$GPGGA,162912.800,3216.9182,N,10644.9324,W,1,10,0.84,1201.4,M,-26.1,M,,*65
$GPGSA,M,3,21,18,22,15,27,29,14,06,03,24,,,1.18,0.84,0.82*06
$GPGSV,4,1,13,21,70,090,37,18,64,003,47,22,50,293,48,06,36,293,47*75
$GPGSV,4,2,13,14,34,205,44,27,31,304,43,15,28,045,43,24,25,097,44*78
$GPGSV,4,3,13,03,17,310,45,29,13,169,36,19,03,325,25,16,01,270,27*76
$GPGSV,4,4,13,34,,,*7C
$GPRMC,162912.800,A,3216.9182,N,10644.9324,W,0.02,178.30,130214,,,A*7E
$GPGGA,162912.900,3216.9182,N,10644.9324,W,1,10,0.84,1201.4,M,-26.1,M,,*64
$GPGSA,M,3,21,18,22,15,27,29,14,06,03,24,,,1.18,0.84,0.82*06
$GPGSV,4,1,13,21,70,090,37,18,64,003,47,22,50,293,48,06,36,293,47*75
$GPGSV,4,2,13,14,34,205,44,27,31,304,43,15,28,045,43,24,25,097,44*78
$GPGSV,4,3,13,03,17,310,45,29,13,169,36,19,03,325,25,16,01,270,27*76
$GPGSV,4,4,13,34,,,*7C
$GPRMC,162912.900,A,3216.9182,N,10644.9324,W,0.01,178.30,130214,,,A*7C
$GPGGA,162913.000,3216.9182,N,10644.9324,W,1,10,0.84,1201.4,M,-26.1,M,,*6C
$GPGSA,M,3,21,18,22,15,27,29,14,06,03,24,,,1.18,0.84,0.82*06
$GPGSV,4,1,13,21,70,090,37,18,64,003,47,22,50,293,48,06,36,293,47*75
$GPGSV,4,2,13,14,34,205,44,27,31,304,43,15,28,045,43,24,25,097,44*78
$GPGSV,4,3,13,03,17,310,45,29,13,169,36,19,03,325,25,16,01,270,27*76
$GPGSV,4,4,13,34,,,*7C
$GPRMC,162913.000,A,3216.9182,N,10644.9324,W,0.01,178.30,130214,,,A*74
$GPGGA,162913.100,3216.9182,N,10644.9324,W,1,10,0.84,1201.4,M,-26.1,M,,*6D
$GPGSA,M,3,21,18,22,15,27,29,14,06,03,24,,,1.18,0.84,0.82*06
$GPGSV,4,1,13,21,70,090,37,18,64,003,47,22,50,293,48,06,36,293,47*75
$GPGSV,4,2,13,14,34,205,44,27,31,304,43,15,28,045,43,24,25,097,44*78
$GPGSV,4,3,13,03,17,310,45,29,13,169,36,19,03,325,25,16,01,270,27*76
$GPGSV,4,4,13,34,,,*7C
$GPRMC,162913.100,A,3216.9182,N,10644.9324,W,0.01,178.30,130214,,,A*75
$GPGGA,162913.200,3216.9182,N,10644.9324,W,1,10,0.84,1201.4,M,-26.1,M,,*6E
$GPGSA,M,3,21,18,22,15,27,29,14,06,03,24,,,1.18,0.84,0.82*06
$GPGSV,4,1,13,21,70,090,37,18,64,003,47,22,50,293,48,06,36,293,47*75
$GPGSV,4,2,13,14,34,205,44,27,31,304,43,15,28,045,43,24,25,097,44*78
$GPGSV,4,3,13,03,17,310,45,29,13,169,36,19,03,325,25,16,01,270,27*76
$GPGSV,4,4,13,34,,,*7C
$GPRMC,162913.200,A,3216.9182,N,10644.9324,W,0.01,178.30,130214,,,A*76
$GPGGA,162913.300,3216.9182,N,10644.9324,W,1,10,0.84,1201.4,M,-26.1,M,,*6F
$GPGSA,M,3,21,18,22,15,27,29,14,06,03,24,,,1.18,0.84,0.82*06
$GPGSV,4,1,13,21,70,090,37,18,64,003,47,22,50,293,48,06,36,293,47*75
$GPGSV,4,2,13,14,34,205,44,27,31,304,43,15,28,045,43,24,25,097,44*78
$GPGSV,4,3,13,03,17,310,45,29,13,169,36,19,03,325,26,16,01,270,28*7A
$GPGSV,4,4,13,34,,,*7C
$GPRMC,162913.300,A,3216.9182,N,10644.9324,W,0.01,178.30,130214,,,A*77
$GPGGA,162913.400,3216.9182,N,10644.9324,W,1,10,0.84,1201.4,M,-26.1,M,,*68
$GPGSA,M,3,21,18,22,15,27,29,14,06,03,24,,,1.18,0.84,0.82*06
$GPGSV,4,1,13,21,70,090,37,18,64,003,47,22,50,293,48,06,36,293,47*75
$GPGSV,4,2,13,14,34,205,44,27,31,304,43,15,28,045,43,24,25,097,44*78
$GPGSV,4,3,13,03,17,310,45,29,13,169,36,19,03,325,26,16,01,270,28*7A
$GPGSV,4,4,13,34,,,*7C
$GPRMC,162913.400,A,3216.9182,N,10644.9324,W,0.02,178.30,130214,,,A*73
$GPGGA,162913.500,3216.9182,N,10644.9324,W,1,10,0.84,1201.4,M,-26.1,M,,*69
$GPGSA,M,3,21,18,22,15,27,29,14,06,03,24,,,1.18,0.84,0.82*06
$GPGSV,4,1,13,21,70,090,37,18,64,003,47,22,50,293,48,06,36,293,47*75
$GPGSV,4,2,13,14,34,205,44,27,31,304,43,15,28,045,43,24,25,097,44*78
$GPGSV,4,3,13,03,17,310,45,29,13,169,36,19,03,325,26,16,01,270,28*7A
$GPGSV,4,4,13,34,,,*7C
$GPRMC,162913.500,A,3216.9182,N,10644.9324,W,0.02,178.30,130214,,,A*72
$GPGGA,162913.600,3216.9182,N,10644.9324,W,1,10,0.84,1201.4,M,-26.1,M,,*6A
$GPGSA,M,3,21,18,22,15,27,29,14,06,03,24,,,1.18,0.84,0.82*06
$GPGSV,4,1,13,21,70,090,37,18,64,003,47,22,50,293,48,06,36,293,47*75
$GPGSV,4,2,13,14,34,205,44,27,31,304,43,15,28,045,43,24,25,097,44*78
$GPGSV,4,3,13,03,17,310,45,29,13,169,36,19,03,325,26,16,01,270,28*7A
$GPGSV,4,4,13,34,,,*7C
$GPRMC,162913.600,A,3216.9182,N,10644.9324,W,0.01,178.30,130214,,,A*72
$GPGGA,162913.700,3216.9182,N,10644.9324,W,1,10,0.84,1201.4,M,-26.1,M,,*6B
$GPGSA,M,3,21,18,22,15,27,29,14,06,03,24,,,1.18,0.84,0.82*06
$GPGSV,4,1,13,21,70,090,37,18,64,003,47,22,50,293,48,06,36,293,47*75
$GPGSV,4,2,13,14,34,205,44,27,31,304,43,15,28,045,43,24,25,097,44*78
$GPGSV,4,3,13,03,17,310,45,29,13,169,36,19,03,325,26,16,01,270,28*7A
$GPGSV,4,4,13,34,,,*7C
$GPRMC,162913.700,A,3216.9182,N,10644.9324,W,0.01,178.30,130214,,,A*73
$GPGGA,162913.800,3216.9182,N,10644.9324,W,1,10,0.84,1201.4,M,-26.1,M,,*64
$GPGSA,M,3,21,18,22,15,27,29,14,06,03,24,,,1.18,0.84,0.82*06
$GPGSV,4,1,13,21,70,090,37,18,64,003,47,22,50,293,48,06,36,293,47*75
$GPGSV,4,2,13,14,34,205,44,27,31,304,43,15,28,045,43,24,25,097,44*78
$GPGSV,4,3,13,03,17,310,45,29,13,169,36,19,03,325,26,16,01,270,28*7A
$GPGSV,4,4,13,34,,,*7C
$GPRMC,162913.800,A,3216.9182,N,10644.9324,W,0.01,178.30,130214,,,A*7C
$GPGGA,162913.900,3216.9182,N,10644.9324,W,1,10,0.84,1201.4,M,-26.1,M,,*65
$GPGSA,M,3,21,18,22,15,27,29,14,06,03,24,,,1.18,0.84,0.82*06
$GPGSV,4,1,13,21,70,090,37,18,64,003,47,22,50,293,48,06,36,293,47*75
$GPGSV,4,2,13,14,34,205,44,27,31,304,43,15,28,045,43,24,25,097,44*78
$GPGSV,4,3,13,03,17,310,45,29,13,169,36,19,03,325,26,16,01,270,28*7A
$GPGSV,4,4,13,34,,,*7C
$GPRMC,162913.900,A,3216.9182,N,10644.9324,W,0.02,178.30,130214,,,A*7E
$GPGGA,162914.000,3216.9182,N,10644.9324,W,1,10,0.84,1201.4,M,-26.1,M,,*6B
$GPGSA,M,3,21,18,22,15,27,29,14,06,03,24,,,1.18,0.84,0.82*06
$GPGSV,4,1,13,21,70,090,37,18,64,003,47,22,50,293,48,06,36,293,47*75
$GPGSV,4,2,13,14,34,205,44,27,31,304,43,15,28,045,43,24,25,097,44*78
$GPGSV,4,3,13,03,17,310,45,29,13,169,36,19,03,325,26,16,01,270,28*7A
$GPGSV,4,4,13,34,,,*7C
$GPRMC,162914.000,A,3216.9182,N,10644.9324,W,0.00,178.30,130214,,,A*72
$GPGGA,162914.100,3216.9182,N,10644.9324,W,1,10,0.84,1201.4,M,-26.1,M,,*6A
$GPGSA,M,3,21,18,22,15,27,29,14,06,03,24,,,1.18,0.84,0.82*06
$GPGSV,4,1,13,21,70,090,37,18,64,003,47,22,50,293,48,06,36,293,47*75
$GPGSV,4,2,13,14,34,205,44,27,31,304,43,15,28,045,43,24,25,097,44*78
$GPGSV,4,3,13,03,17,310,45,29,13,169,36,19,03,325,26,16,01,270,28*7A
$GPGSV,4,4,13,34,,,*7C
$GPRMC,162914.100,A,3216.9182,N,10644.9324,W,0.01,178.30,130214,,,A*72
$GPGGA,162914.200,3216.9182,N,10644.9324,W,1,10,0.84,1201.4,M,-26.1,M,,*69
$GPGSA,M,3,21,18,22,15,27,29,14,06,03,24,,,1.18,0.84,0.82*06
$GPGSV,4,1,13,21,70,090,37,18,64,003,47,22,50,293,48,06,36,293,47*75
$GPGSV,4,2,13,14,34,205,44,27,31,304,43,15,28,045,43,24,25,097,44*78
$GPGSV,4,3,13,03,17,310,45,29,13,169,36,19,03,325,26,16,01,270,28*7A
$GPGSV,4,4,13,35,,,*7D
$GPRMC,162914.200,A,3216.9182,N,10644.9324,W,0.02,178.30,130214,,,A*72
$GPGGA,162914.300,3216.9182,N,10644.9324,W,1,10,0.84,1201.4,M,-26.1,M,,*68
$GPGSA,M,3,21,18,22,15,27,29,14,06,03,24,,,1.18,0.84,0.82*06
$GPGSV,4,1,13,21,70,090,37,18,64,003,47,22,50,293,48,06,36,293,47*75
$GPGSV,4,2,13,14,34,205,44,27,31,304,43,15,28,045,43,24,25,097,44*78
$GPGSV,4,3,13,03,17,310,45,29,13,169,36,19,03,325,26,16,01,270,28*7A
$GPGSV,4,4,13,35,,,*7D
$GPRMC,162914.300,A,3216.9182,N,10644.9324,W,0.02,178.30,130214,,,A*73
$GPGGA,162914.400,3216.9182,N,10644.9324,W,1,10,0.85,1201.4,M,-26.1,M,,*6E
$GPGSA,M,3,21,18,22,15,27,29,14,06,03,24,,,1.68,0.85,1.45*0A
$GPGSV,4,1,13,21,70,090,37,18,64,003,47,22,50,293,48,06,36,293,47*75
$GPGSV,4,2,13,14,34,205,44,27,31,304,43,15,28,045,43,24,25,097,44*78
$GPGSV,4,3,13,03,17,310,45,29,13,169,36,19,03,325,26,16,01,270,28*7A
$GPGSV,4,4,13,35,,,*7D
$GPRMC,162914.400,A,3216.9182,N,10644.9324,W,0.01,178.30,130214,,,A*77
$GPGGA,162914.500,3216.9182,N,10644.9324,W,1,10,0.85,1201.4,M,-26.1,M,,*6F
$GPGSA,M,3,21,18,22,15,27,29,14,06,03,24,,,1.68,0.85,1.45*0A
$GPGSV,4,1,13,21,70,090,37,18,64,003,47,22,50,293,48,06,36,293,47*75
$GPGSV,4,2,13,14,34,205,44,27,31,304,43,15,28,045,43,24,25,097,44*78
$GPGSV,4,3,13,03,17,310,45,29,13,169,36,19,03,325,26,16,01,270,28*7A
$GPGSV,4,4,13,35,,,*7D
$GPRMC,162914.500,A,3216.9182,N,10644.9324,W,0.01,178.30,130214,,,A*76
$GPGGA,162914.600,3216.9182,N,10644.9324,W,1,10,0.85,1201.4,M,-26.1,M,,*6C
$GPGSA,M,3,21,18,22,15,27,29,14,06,03,24,,,1.68,0.85,1.45*0A
$GPGSV,4,1,13,21,70,090,37,18,64,003,47,22,50,293,48,06,36,293,47*75
$GPGSV,4,2,13,14,34,205,44,27,31,304,43,15,28,045,43,24,25,097,44*78
$GPGSV,4,3,13,03,17,310,45,29,13,169,36,19,03,325,26,16,01,270,28*7A
$GPGSV,4,4,13,35,,,*7D
$GPRMC,162914.600,A,3216.9182,N,10644.9324,W,0.01,178.30,130214,,,A*75
$GPGGA,162914.700,3216.9182,N,10644.9324,W,1,10,0.85,1201.4,M,-26.1,M,,*6D
$GPGSA,M,3,21,18,22,15,27,29,14,06,03,24,,,1.68,0.85,1.45*0A
$GPGSV,4,1,13,21,70,090,37,18,64,003,47,22,50,293,48,06,36,293,47*75
$GPGSV,4,2,13,14,34,205,44,27,31,304,43,15,28,045,43,24,25,097,44*78
$GPGSV,4,3,13,03,17,310,45,29,13,169,36,19,03,325,26,16,01,270,28*7A
$GPGSV,4,4,13,35,,,*7D
$GPRMC,162914.700,A,3216.9182,N,10644.9324,W,0.01,178.30,130214,,,A*74
$GPGGA,162914.800,3216.9182,N,10644.9324,W,1,10,0.85,1201.4,M,-26.1,M,,*62
$GPGSA,M,3,21,18,22,15,27,29,14,06,03,24,,,1.68,0.85,1.45*0A
$GPGSV,4,1,13,21,70,090,37,18,64,003,47,22,50,293,48,06,36,293,47*75
$GPGSV,4,2,13,14,34,205,44,27,31,304,43,15,28,045,43,24,25,097,44*78
$GPGSV,4,3,13,03,17,310,45,29,13,169,36,19,03,325,26,16,01,270,28*7A
$GPGSV,4,4,13,35,,,*7D
$GPRMC,162914.800,A,3216.9182,N,10644.9324,W,0.01,178.30,130214,,,A*7B
$GPGGA,162914.900,3216.9182,N,10644.9324,W,1,10,0.85,1201.4,M,-26.1,M,,*63
$GPGSA,M,3,21,18,22,15,27,29,14,06,03,24,,,1.68,0.85,1.45*0A
$GPGSV,4,1,13,21,70,090,37,18,64,003,47,22,50,293,48,06,36,293,47*75
$GPGSV,4,2,13,14,34,205,44,27,31,304,43,15,28,045,43,24,25,097,44*78
$GPGSV,4,3,13,03,17,310,45,29,13,169,36,19,03,325,26,16,01,270,28*7A
$GPGSV,4,4,13,35,,,*7D
$GPRMC,162914.900,A,3216.9182,N,10644.9324,W,0.01,178.30,130214,,,A*7A
$GPGGA,162915.000,3216.9182,N,10644.9324,W,1,10,0.85,1201.4,M,-26.1,M,,*6B
$GPGSA,M,3,21,18,22,15,27,29,14,06,03,24,,,1.68,0.85,1.45*0A
$GPGSV,4,1,13,21,70,090,37,18,64,003,47,22,50,293,48,06,36,293,47*75
$GPGSV,4,2,13,14,34,205,44,27,31,304,43,15,28,045,43,24,25,097,44*78
$GPGSV,4,3,13,03,17,310,45,29,13,169,36,19,03,325,26,16,01,270,28*7A
$GPGSV,4,4,13,35,,,*7D
$GPRMC,162915.000,A,3216.9182,N,10644.9324,W,0.01,178.30,130214,,,A*72
$GPGGA,162915.100,3216.9182,N,10644.9324,W,1,10,0.85,1201.4,M,-26.1,M,,*6A
$GPGSA,M,3,21,18,22,15,27,29,14,06,03,24,,,1.68,0.85,1.45*0A
$GPGSV,4,1,13,21,70,090,37,18,64,003,47,22,50,293,48,06,36,293,47*75
$GPGSV,4,2,13,14,34,205,44,27,31,304,43,15,28,045,43,24,25,097,44*78
$GPGSV,4,3,13,03,17,310,45,29,13,169,36,19,03,325,26,16,01,270,28*7A
$GPGSV,4,4,13,35,,,*7D
$GPRMC,162915.100,A,3216.9182,N,10644.9324,W,0.00,178.30,130214,,,A*72
$GPGGA,162915.200,3216.9182,N,10644.9324,W,1,10,0.85,1201.4,M,-26.1,M,,*69
$GPGSA,M,3,21,18,22,15,27,29,14,06,03,24,,,1.68,0.85,1.45*0A
$GPGSV,4,1,13,21,70,090,37,18,64,003,47,22,50,293,48,06,36,293,47*75
$GPGSV,4,2,13,14,34,205,44,27,31,304,43,15,28,045,43,24,25,097,44*78
$GPGSV,4,3,13,03,17,310,45,29,13,169,36,19,03,325,26,16,01,270,28*7A
$GPGSV,4,4,13,35,,,*7D
$GPRMC,162915.200,A,3216.9182,N,10644.9324,W,0.01,178.30,130214,,,A*70
$GPGGA,162915.300,3216.9182,N,10644.9324,W,1,10,0.85,1201.4,M,-26.1,M,,*68
$GPGSA,M,3,21,18,22,15,27,29,14,06,03,24,,,1.68,0.85,1.45*0A
$GPGSV,4,1,13,21,70,090,37,18,64,003,47,22,50,293,48,06,36,293,47*75
$GPGSV,4,2,13,14,34,205,44,27,31,304,43,15,28,045,43,24,25,097,44*78
$GPGSV,4,3,13,03,17,310,45,29,13,169,36,19,03,325,26,16,01,270,28*7A
$GPGSV,4,4,13,35,,,*7D
$GPRMC,162915.300,A,3216.9182,N,10644.9324,W,0.01,178.30,130214,,,A*71
$GPGGA,162915.400,3216.9182,N,10644.9324,W,1,10,0.85,1201.4,M,-26.1,M,,*6F
$GPGSA,M,3,21,18,22,15,27,29,14,06,03,24,,,1.68,0.85,1.45*0A
$GPGSV,4,1,13,21,70,090,37,18,64,003,47,22,50,293,48,06,36,293,47*75
$GPGSV,4,2,13,14,34,205,44,27,31,304,43,15,28,045,43,24,25,097,44*78
$GPGSV,4,3,13,03,17,310,45,29,13,169,36,19,03,325,26,16,01,270,28*7A
$GPGSV,4,4,13,35,,,*7D
$GPRMC,162915.400,A,3216.9182,N,10644.9324,W,0.01,178.30,130214,,,A*76
$GPGGA,162915.500,3216.9182,N,10644.9324,W,1,10,0.85,1201.4,M,-26.1,M,,*6E
$GPGSA,M,3,21,18,22,15,27,29,14,06,03,24,,,1.68,0.85,1.45*0A
$GPGSV,4,1,13,21,70,090,37,18,64,003,47,22,50,293,48,06,36,293,47*75
$GPGSV,4,2,13,14,34,205,43,27,31,304,43,15,28,045,43,24,25,097,44*7F
$GPGSV,4,3,13,03,17,310,45,29,13,169,36,19,03,325,26,16,01,270,28*7A
$GPGSV,4,4,13,35,,,*7D
$GPRMC,162915.500,A,3216.9182,N,10644.9324,W,0.00,178.30,130214,,,A*76
$GPGGA,162915.600,3216.9182,N,10644.9324,W,1,10,0.85,1201.4,M,-26.1,M,,*6D
$GPGSA,M,3,21,18,22,15,27,29,14,06,03,24,,,1.68,0.85,1.45*0A
$GPGSV,4,1,13,21,70,090,37,18,64,003,47,22,50,293,48,06,36,293,47*75
$GPGSV,4,2,13,14,34,205,43,27,31,304,43,15,28,045,43,24,25,097,44*7F
$GPGSV,4,3,13,03,17,310,45,29,13,169,36,19,03,325,26,16,01,270,28*7A
$GPGSV,4,4,13,35,,,*7D
$GPRMC,162915.600,A,3216.9182,N,10644.9324,W,0.01,178.30,130214,,,A*74
$GPGGA,162915.700,3216.9182,N,10644.9324,W,1,10,0.85,1201.4,M,-26.1,M,,*6C
$GPGSA,M,3,21,18,22,15,27,29,14,06,03,24,,,1.68,0.85,1.45*0A
$GPGSV,4,1,13,21,70,090,37,18,64,003,47,22,50,293,48,06,36,293,47*75
$GPGSV,4,2,13,14,34,205,43,27,31,304,43,15,28,045,43,24,25,097,44*7F
$GPGSV,4,3,13,03,17,310,45,29,13,169,36,19,03,325,26,16,01,270,28*7A
$GPGSV,4,4,13,35,,,*7D
$GPRMC,162915.700,A,3216.9182,N,10644.9324,W,0.00,178.30,130214,,,A*74
$GPGGA,162915.800,3216.9182,N,10644.9324,W,1,10,0.85,1201.4,M,-26.1,M,,*63
$GPGSA,M,3,21,18,22,15,27,29,14,06,03,24,,,1.68,0.85,1.45*0A
$GPGSV,4,1,13,21,70,090,37,18,64,003,47,22,50,293,48,06,36,293,47*75
$GPGSV,4,2,13,14,34,205,43,27,31,304,43,15,28,045,43,24,25,097,44*7F
$GPGSV,4,3,13,03,17,310,45,29,13,169,36,19,03,325,26,16,01,270,28*7A
$GPGSV,4,4,13,35,,,*7D
$GPRMC,162915.800,A,3216.9182,N,10644.9324,W,0.00,178.30,130214,,,A*7B
$GPGGA,162915.900,3216.9182,N,10644.9324,W,1,10,0.85,1201.4,M,-26.1,M,,*62
$GPGSA,M,3,21,18,22,15,27,29,14,06,03,24,,,1.68,0.85,1.45*0A
$GPGSV,4,1,13,21,70,090,37,18,64,003,47,22,50,293,48,06,36,293,47*75
$GPGSV,4,2,13,14,34,205,43,27,31,304,43,15,28,045,43,24,25,097,44*7F
$GPGSV,4,3,13,03,17,310,45,29,13,169,36,19,03,325,26,16,01,270,28*7A
$GPGSV,4,4,13,35,,,*7D
$GPRMC,162915.900,A,3216.9182,N,10644.9324,W,0.00,178.30,130214,,,A*7A
$GPGGA,162916.000,3216.9182,N,10644.9324,W,1,10,0.85,1201.4,M,-26.1,M,,*68
$GPGSA,M,3,21,18,22,15,27,29,14,06,03,24,,,1.68,0.85,1.45*0A
$GPGSV,4,1,13,21,70,090,37,18,64,003,47,22,50,293,48,06,36,293,47*75
$GPGSV,4,2,13,14,34,205,43,27,31,304,43,15,28,045,43,24,25,097,44*7F
$GPGSV,4,3,13,03,17,310,45,29,13,169,36,19,03,325,26,16,01,270,28*7A
$GPGSV,4,4,13,35,,,*7D
$GPRMC,162916.000,A,3216.9182,N,10644.9324,W,0.00,178.30,130214,,,A*70
$GPGGA,162916.100,3216.9182,N,10644.9324,W,1,10,0.85,1201.4,M,-26.1,M,,*69
$GPGSA,M,3,21,18,22,15,27,29,14,06,03,24,,,1.68,0.85,1.45*0A
$GPGSV,4,1,13,21,70,090,37,18,64,003,47,22,50,293,48,06,36,293,47*75
$GPGSV,4,2,13,14,34,205,43,27,31,304,43,15,28,045,43,24,25,097,44*7F
$GPGSV,4,3,13,03,17,310,45,29,13,169,36,19,03,325,26,16,01,270,28*7A
$GPGSV,4,4,13,35,,,*7D
$GPRMC,162916.100,A,3216.9182,N,10644.9324,W,0.00,178.30,130214,,,A*71
$GPGGA,162916.200,3216.9182,N,10644.9324,W,1,10,0.85,1201.4,M,-26.1,M,,*6A
$GPGSA,M,3,21,18,22,15,27,29,14,06,03,24,,,1.68,0.85,1.45*0A
$GPGSV,4,1,13,21,70,090,37,18,64,003,47,22,50,293,48,06,36,293,47*75
$GPGSV,4,2,13,14,34,205,43,27,31,304,43,15,28,045,43,24,25,097,44*7F
$GPGSV,4,3,13,03,17,310,45,29,13,169,36,19,03,325,27,16,01,270,28*7B
$GPGSV,4,4,13,35,,,*7D
$GPRMC,162916.200,A,3216.9182,N,10644.9324,W,0.00,178.30,130214,,,A*72
$GPGGA,162916.300,3216.9182,N,10644.9324,W,1,10,0.85,1201.4,M,-26.1,M,,*6B
$GPGSA,M,3,21,18,22,15,27,29,14,06,03,24,,,1.68,0.85,1.45*0A
$GPGSV,4,1,13,21,70,090,37,18,64,003,47,22,50,293,48,06,36,293,47*75
$GPGSV,4,2,13,14,34,205,43,27,31,304,43,15,28,045,43,24,25,097,44*7F
$GPGSV,4,3,13,03,17,310,45,29,13,169,36,19,03,325,27,16,01,270,28*7B
$GPGSV,4,4,13,35,,,*7D
$GPRMC,162916.300,A,3216.9182,N,10644.9324,W,0.00,178.30,130214,,,A*73
$GPGGA,162916.400,3216.9182,N,10644.9324,W,1,10,0.85,1201.4,M,-26.1,M,,*6C
$GPGSA,M,3,21,18,22,15,27,29,14,06,03,24,,,1.68,0.85,1.45*0A
$GPGSV,4,1,13,21,70,090,37,18,64,003,47,22,50,293,48,06,36,293,47*75
$GPGSV,4,2,13,14,34,205,43,27,31,304,43,15,28,045,43,24,25,097,44*7F
$GPGSV,4,3,13,03,17,310,45,29,13,169,36,19,03,325,27,16,01,270,28*7B
$GPGSV,4,4,13,35,,,*7D
$GPRMC,162916.400,A,3216.9182,N,10644.9324,W,0.00,178.30,130214,,,A*74
$GPGGA,162916.500,3216.9182,N,10644.9324,W,1,10,0.85,1201.4,M,-26.1,M,,*6D
$GPGSA,M,3,21,18,22,15,27,29,14,06,03,24,,,1.68,0.85,1.45*0A
$GPGSV,4,1,13,21,70,090,37,18,64,003,47,22,50,293,48,06,36,293,47*75
$GPGSV,4,2,13,14,34,205,43,27,31,304,43,15,28,045,43,24,25,097,44*7F
$GPGSV,4,3,13,03,17,310,45,29,13,169,36,19,03,325,27,16,01,270,28*7B
$GPGSV,4,4,13,35,,,*7D
$GPRMC,162916.500,A,3216.9182,N,10644.9324,W,0.00,178.30,130214,,,A*75
$GPGGA,162916.600,3216.9182,N,10644.9324,W,1,10,0.85,1201.5,M,-26.1,M,,*6F
$GPGSA,M,3,21,18,22,15,27,29,14,06,03,24,,,1.68,0.85,1.45*0A
$GPGSV,4,1,13,21,70,090,37,18,64,003,47,22,50,293,48,06,36,293,47*75
$GPGSV,4,2,13,14,34,205,43,27,31,304,43,15,28,045,43,24,25,097,44*7F
$GPGSV,4,3,13,03,17,310,45,29,13,169,36,19,03,325,27,16,01,270,28*7B
$GPGSV,4,4,13,35,,,*7D
$GPRMC,162916.600,A,3216.9182,N,10644.9324,W,0.01,178.30,130214,,,A*77
$GPGGA,162916.700,3216.9182,N,10644.9324,W,1,10,0.85,1201.5,M,-26.1,M,,*6E
$GPGSA,M,3,21,18,22,15,27,29,14,06,03,24,,,1.68,0.85,1.45*0A
$GPGSV,4,1,13,21,70,090,37,18,64,003,47,22,50,293,48,06,36,293,47*75
$GPGSV,4,2,13,14,34,205,43,27,31,304,43,15,28,045,43,24,25,097,44*7F
$GPGSV,4,3,13,03,17,310,45,29,13,169,36,19,03,325,27,16,01,270,28*7B
$GPGSV,4,4,13,35,,,*7D
$GPRMC,162916.700,A,3216.9182,N,10644.9324,W,0.01,178.30,130214,,,A*76
$GPGGA,162916.800,3216.9182,N,10644.9324,W,1,10,0.85,1201.5,M,-26.1,M,,*61
$GPGSA,M,3,21,18,22,15,27,29,14,06,03,24,,,1.68,0.85,1.45*0A
$GPGSV,4,1,13,21,70,090,37,18,64,003,47,22,50,293,48,06,36,293,47*75
$GPGSV,4,2,13,14,34,205,43,27,31,304,43,15,28,045,43,24,25,097,44*7F
$GPGSV,4,3,13,03,17,310,45,29,13,169,36,19,03,325,27,16,01,270,27*74
$GPGSV,4,4,13,35,,,*7D
$GPRMC,162916.800,A,3216.9182,N,10644.9324,W,0.00,178.30,130214,,,A*78
$GPGGA,162916.900,3216.9182,N,10644.9324,W,1,10,0.85,1201.5,M,-26.1,M,,*60
$GPGSA,M,3,21,18,22,15,27,29,14,06,03,24,,,1.68,0.85,1.45*0A
$GPGSV,4,1,13,21,70,090,37,18,64,003,47,22,50,293,48,06,36,293,47*75
$GPGSV,4,2,13,14,34,205,43,27,31,304,43,15,28,045,43,24,25,097,44*7F
$GPGSV,4,3,13,03,17,310,45,29,13,169,36,19,03,325,27,16,01,270,27*74
$GPGSV,4,4,13,35,,,*7D
$GPRMC,162916.900,A,3216.9182,N,10644.9324,W,0.00,178.30,130214,,,A*79
$GPGGA,162917.000,3216.9182,N,10644.9324,W,1,10,0.85,1201.5,M,-26.1,M,,*68
$GPGSA,M,3,21,18,22,15,27,29,14,06,03,24,,,1.68,0.85,1.45*0A
$GPGSV,4,1,13,21,70,090,37,18,64,003,47,22,50,293,48,06,36,293,47*75
$GPGSV,4,2,13,14,34,205,43,27,31,304,43,15,28,045,43,24,25,097,44*7F
$GPGSV,4,3,13,03,17,310,45,29,13,169,36,19,03,325,27,16,01,270,27*74
$GPGSV,4,4,13,35,,,*7D
$GPRMC,162917.000,A,3216.9182,N,10644.9324,W,0.00,178.30,130214,,,A*71
$GPGGA,162917.100,3216.9182,N,10644.9324,W,1,10,0.85,1201.5,M,-26.1,M,,*69
$GPGSA,M,3,21,18,22,15,27,29,14,06,03,24,,,1.68,0.85,1.45*0A
$GPGSV,4,1,13,21,70,090,37,18,64,003,47,22,50,293,48,06,36,293,47*75
$GPGSV,4,2,13,14,34,205,43,27,31,304,43,15,28,045,43,24,25,097,44*7F
$GPGSV,4,3,13,03,17,310,45,29,13,169,36,19,03,325,27,16,01,270,27*74
$GPGSV,4,4,13,35,,,*7D
$GPRMC,162917.100,A,3216.9182,N,10644.9324,W,0.00,178.30,130214,,,A*70
$GPGGA,162917.200,3216.9182,N,10644.9324,W,1,10,0.85,1201.5,M,-26.1,M,,*6A
$GPGSA,M,3,21,18,22,15,27,29,14,06,03,24,,,1.68,0.85,1.45*0A
$GPGSV,4,1,13,21,70,090,37,18,64,003,47,22,50,293,48,06,36,293,47*75
$GPGSV,4,2,13,14,34,205,43,27,31,304,43,15,28,045,43,24,25,097,44*7F
$GPGSV,4,3,13,03,17,310,45,29,13,169,36,19,03,325,27,16,01,270,27*74
$GPGSV,4,4,13,35,,,*7D
$GPRMC,162917.200,A,3216.9182,N,10644.9324,W,0.00,178.30,130214,,,A*73
$GPGGA,162917.300,3216.9182,N,10644.9324,W,1,10,0.85,1201.5,M,-26.1,M,,*6B
$GPGSA,M,3,21,18,22,15,27,29,14,06,03,24,,,1.68,0.85,1.45*0A
$GPGSV,4,1,13,21,70,090,37,18,64,003,47,22,50,293,48,06,36,293,47*75
$GPGSV,4,2,13,14,34,205,43,27,31,304,43,15,28,045,43,24,25,097,44*7F
$GPGSV,4,3,13,03,17,310,45,29,13,169,36,19,03,325,27,16,01,270,27*74
$GPGSV,4,4,13,35,,,*7D
$GPRMC,162917.300,A,3216.9182,N,10644.9324,W,0.01,178.30,130214,,,A*73
$GPGGA,162917.400,3216.9182,N,10644.9324,W,1,10,0.85,1201.5,M,-26.1,M,,*6C
$GPGSA,M,3,21,18,22,15,27,29,14,06,03,24,,,1.68,0.85,1.45*0A
$GPGSV,4,1,13,21,70,090,37,18,64,003,47,22,50,293,48,06,36,293,47*75
$GPGSV,4,2,13,14,34,205,43,27,31,304,43,15,28,045,43,24,25,097,44*7F
$GPGSV,4,3,13,03,17,310,45,29,13,169,36,19,03,325,27,16,01,270,27*74
$GPGSV,4,4,13,35,,,*7D
$GPRMC,162917.400,A,3216.9182,N,10644.9324,W,0.00,178.30,130214,,,A*75
$GPGGA,162917.500,3216.9182,N,10644.9324,W,1,10,0.85,1201.5,M,-26.1,M,,*6D
$GPGSA,M,3,21,18,22,15,27,29,14,06,03,24,,,1.68,0.85,1.45*0A
$GPGSV,4,1,13,21,70,090,37,18,64,003,47,22,50,293,48,06,36,293,47*75
$GPGSV,4,2,13,14,34,205,43,27,31,304,43,15,28,045,43,24,25,097,44*7F
$GPGSV,4,3,13,03,17,310,45,29,13,169,36,19,03,325,27,16,01,270,27*74
$GPGSV,4,4,13,35,,,*7D
$GPRMC,162917.500,A,3216.9182,N,10644.9324,W,0.00,178.30,130214,,,A*74
$GPGGA,162917.600,3216.9182,N,10644.9324,W,1,10,0.85,1201.5,M,-26.1,M,,*6E
$GPGSA,M,3,21,18,22,15,27,29,14,06,03,24,,,1.68,0.85,1.45*0A
$GPGSV,4,1,13,21,70,090,37,18,64,003,47,22,50,293,48,06,36,293,47*75
$GPGSV,4,2,13,14,34,205,43,27,31,304,43,15,28,045,43,24,25,097,44*7F
$GPGSV,4,3,13,03,17,310,45,29,13,169,36,19,03,325,27,16,01,270,27*74
$GPGSV,4,4,13,35,,,*7D
$GPRMC,162917.600,A,3216.9182,N,10644.9324,W,0.00,178.30,130214,,,A*77
$GPGGA,162917.700,3216.9182,N,10644.9324,W,1,10,0.85,1201.5,M,-26.1,M,,*6F
$GPGSA,M,3,21,18,22,15,27,29,14,06,03,24,,,1.68,0.85,1.45*0A
$GPGSV,4,1,13,21,70,090,37,18,64,003,47,22,50,293,48,06,36,293,47*75
$GPGSV,4,2,13,14,34,205,43,27,31,304,43,15,28,045,43,24,25,097,44*7F
$GPGSV,4,3,13,03,17,310,45,29,13,169,36,19,03,325,27,16,01,270,27*74
$GPGSV,4,4,13,35,,,*7D
$GPRMC,162917.700,A,3216.9182,N,10644.9324,W,0.01,178.30,130214,,,A*77
$GPGGA,162917.800,3216.9182,N,10644.9324,W,1,10,0.85,1201.5,M,-26.1,M,,*60
$GPGSA,M,3,21,18,22,15,27,29,14,06,03,24,,,1.68,0.85,1.45*0A
$GPGSV,4,1,13,21,70,090,37,18,64,003,47,22,50,293,48,06,36,293,47*75
$GPGSV,4,2,13,14,34,205,43,27,31,304,43,15,28,045,43,24,25,097,44*7F
$GPGSV,4,3,13,03,17,310,45,29,13,169,36,19,03,325,27,16,01,270,27*74
$GPGSV,4,4,13,35,,,*7D
$GPRMC,162917.800,A,3216.9182,N,10644.9324,W,0.00,178.30,130214,,,A*79
$GPGGA,162917.900,3216.9182,N,10644.9324,W,1,10,0.85,1201.5,M,-26.1,M,,*61
$GPGSA,M,3,21,18,22,15,27,29,14,06,03,24,,,1.68,0.85,1.45*0A
$GPGSV,4,1,13,21,70,090,37,18,64,003,47,22,50,293,48,06,36,293,47*75
$GPGSV,4,2,13,14,34,205,43,27,31,304,43,15,28,045,43,24,25,097,44*7F
$GPGSV,4,3,13,03,17,310,45,29,13,169,36,19,03,325,27,16,01,270,27*74
$GPGSV,4,4,13,35,,,*7D
$GPRMC,162917.900,A,3216.9182,N,10644.9324,W,0.00,178.30,130214,,,A*78
$GPGGA,162918.000,3216.9182,N,10644.9324,W,1,10,0.85,1201.5,M,-26.1,M,,*67
$GPGSA,M,3,21,18,22,15,27,29,14,06,03,24,,,1.68,0.85,1.45*0A
$GPGSV,4,1,13,21,70,090,37,18,64,003,47,22,50,293,48,06,36,293,47*75
$GPGSV,4,2,13,14,34,205,43,27,31,304,43,15,28,045,43,24,25,097,44*7F
$GPGSV,4,3,13,03,17,310,45,29,13,169,36,19,03,325,27,16,01,270,27*74
$GPGSV,4,4,13,35,,,*7D
$GPRMC,162918.000,A,3216.9182,N,10644.9324,W,0.01,178.30,130214,,,A*7F
$GPGGA,162918.100,3216.9182,N,10644.9324,W,1,10,0.85,1201.5,M,-26.1,M,,*66
$GPGSA,M,3,21,18,22,15,27,29,14,06,03,24,,,1.68,0.85,1.45*0A
$GPGSV,4,1,13,21,70,090,37,18,64,003,47,22,50,293,48,06,36,293,47*75
$GPGSV,4,2,13,14,34,205,43,27,31,304,43,15,28,045,43,24,25,097,44*7F
$GPGSV,4,3,13,03,17,310,45,29,13,169,36,19,03,325,28,16,01,270,27*7B
$GPGSV,4,4,13,35,,,*7D
$GPRMC,162918.100,A,3216.9182,N,10644.9324,W,0.00,178.30,130214,,,A*7F
$GPGGA,162918.200,3216.9182,N,10644.9324,W,1,10,0.85,1201.5,M,-26.1,M,,*65
$GPGSA,M,3,21,18,22,15,27,29,14,06,03,24,,,1.68,0.85,1.45*0A
$GPGSV,4,1,13,21,70,090,37,18,64,003,47,22,50,293,48,06,36,293,47*75
$GPGSV,4,2,13,14,34,205,43,27,31,304,43,15,28,045,43,24,25,097,44*7F
$GPGSV,4,3,13,03,17,310,45,29,13,169,36,19,03,325,28,16,01,270,27*7B
$GPGSV,4,4,13,35,,,*7D
$GPRMC,162918.200,A,3216.9182,N,10644.9324,W,0.01,178.30,130214,,,A*7D
$GPGGA,162918.300,3216.9182,N,10644.9324,W,1,10,0.85,1201.5,M,-26.1,M,,*64
$GPGSA,M,3,21,18,22,15,27,29,14,06,03,24,,,1.68,0.85,1.45*0A
$GPGSV,4,1,13,21,70,090,37,18,64,003,47,22,50,293,48,06,36,293,47*75
$GPGSV,4,2,13,14,34,205,43,27,31,304,43,15,28,045,43,24,25,097,44*7F
$GPGSV,4,3,13,03,17,310,45,29,13,169,36,19,03,325,28,16,01,270,27*7B
$GPGSV,4,4,13,35,,,*7D
$GPRMC,162918.300,A,3216.9182,N,10644.9324,W,0.01,178.30,130214,,,A*7C
$GPGGA,162918.400,3216.9182,N,10644.9324,W,1,10,0.85,1201.5,M,-26.1,M,,*63
$GPGSA,M,3,21,18,22,15,27,29,14,06,03,24,,,1.68,0.85,1.45*0A
$GPGSV,4,1,13,21,70,090,37,18,64,003,47,22,50,293,48,06,36,293,47*75
$GPGSV,4,2,13,14,34,205,43,27,31,304,43,15,28,045,43,24,25,097,44*7F
$GPGSV,4,3,13,03,17,310,45,29,13,169,36,19,03,325,28,16,01,270,27*7B
$GPGSV,4,4,13,35,,,*7D
$GPRMC,162918.400,A,3216.9182,N,10644.9324,W,0.01,178.30,130214,,,A*7B
$GPGGA,162918.500,3216.9182,N,10644.9324,W,1,10,0.85,1201.5,M,-26.1,M,,*62
$GPGSA,M,3,21,18,22,15,27,29,14,06,03,24,,,1.68,0.85,1.45*0A
$GPGSV,4,1,13,21,70,090,37,18,64,003,47,22,50,293,48,06,36,293,47*75
$GPGSV,4,2,13,14,34,205,43,27,31,304,43,15,28,045,43,24,25,097,44*7F
$GPGSV,4,3,13,03,17,310,45,29,13,169,36,19,03,325,28,16,01,270,26*7A
$GPGSV,4,4,13,35,,,*7D
$GPRMC,162918.500,A,3216.9182,N,10644.9324,W,0.01,178.30,130214,,,A*7A
$GPGGA,162918.600,3216.9182,N,10644.9324,W,1,10,0.85,1201.5,M,-26.1,M,,*61
$GPGSA,M,3,21,18,22,15,27,29,14,06,03,24,,,1.68,0.85,1.45*0A
$GPGSV,4,1,13,21,70,090,37,18,64,003,47,22,50,293,48,06,36,293,47*75
$GPGSV,4,2,13,14,34,205,43,27,31,304,43,15,28,045,43,24,25,097,44*7F
$GPGSV,4,3,13,03,17,310,45,29,13,169,36,19,03,325,28,16,01,270,26*7A
$GPGSV,4,4,13,35,,,*7D
$GPRMC,162918.600,A,3216.9182,N,10644.9324,W,0.00,178.30,130214,,,A*78
$GPGGA,162918.700,3216.9182,N,10644.9324,W,1,10,0.85,1201.5,M,-26.1,M,,*60
$GPGSA,M,3,21,18,22,15,27,29,14,06,03,24,,,1.68,0.85,1.45*0A
$GPGSV,4,1,13,21,70,090,37,18,64,003,47,22,50,293,48,06,36,293,47*75
$GPGSV,4,2,13,14,34,205,43,27,31,304,43,15,28,045,43,24,25,097,44*7F
$GPGSV,4,3,13,03,17,310,45,29,13,169,36,19,03,325,28,16,01,270,26*7A
$GPGSV,4,4,13,35,,,*7D
$GPRMC,162918.700,A,3216.9182,N,10644.9324,W,0.01,178.30,130214,,,A*78
$GPGGA,162918.800,3216.9182,N,10644.9324,W,1,10,0.85,1201.5,M,-26.1,M,,*6F
$GPGSA,M,3,21,18,22,15,27,29,14,06,03,24,,,1.68,0.85,1.45*0A
$GPGSV,4,1,13,21,70,090,37,18,64,003,47,22,50,293,48,06,36,293,47*75
$GPGSV,4,2,13,14,34,205,43,27,31,304,43,15,28,045,43,24,25,097,44*7F
$GPGSV,4,3,13,03,17,310,45,29,13,169,36,19,03,325,28,16,01,270,26*7A
$GPGSV,4,4,13,35,,,*7D
$GPRMC,162918.800,A,3216.9182,N,10644.9324,W,0.01,178.30,130214,,,A*77
$GPGGA,162918.900,3216.9182,N,10644.9324,W,1,10,0.85,1201.5,M,-26.1,M,,*6E
$GPGSA,M,3,21,18,22,15,27,29,14,06,03,24,,,1.68,0.85,1.45*0A
$GPGSV,4,1,13,21,70,090,37,18,64,003,47,22,50,293,48,06,36,293,47*75
$GPGSV,4,2,13,14,34,205,43,27,31,304,43,15,28,045,43,24,25,097,44*7F
$GPGSV,4,3,13,03,17,310,45,29,13,169,36,19,03,325,28,16,01,270,26*7A
$GPGSV,4,4,13,35,,,*7D
$GPRMC,162918.900,A,3216.9182,N,10644.9324,W,0.01,178.30,130214,,,A*76
$GPGGA,162919.000,3216.9182,N,10644.9324,W,1,10,0.85,1201.5,M,-26.1,M,,*66
$GPGSA,M,3,21,18,22,15,27,29,14,06,03,24,,,1.68,0.85,1.45*0A
$GPGSV,4,1,13,21,70,090,37,18,64,003,47,22,50,293,48,06,36,293,47*75
$GPGSV,4,2,13,14,34,205,43,27,31,304,43,15,28,045,43,24,25,097,44*7F
$GPGSV,4,3,13,03,17,310,45,29,13,169,36,19,03,325,28,16,01,270,26*7A
$GPGSV,4,4,13,35,,,*7D
$GPRMC,162919.000,A,3216.9182,N,10644.9324,W,0.01,178.30,130214,,,A*7E
$GPGGA,162919.100,3216.9182,N,10644.9324,W,1,10,0.85,1201.5,M,-26.1,M,,*67
$GPGSA,M,3,21,18,22,15,27,29,14,06,03,24,,,1.68,0.85,1.45*0A
$GPGSV,4,1,13,21,70,090,37,18,64,003,47,22,50,293,48,06,36,293,47*75
$GPGSV,4,2,13,14,34,205,43,27,31,304,43,15,28,045,43,24,25,097,44*7F
$GPGSV,4,3,13,03,17,310,45,29,13,169,36,19,03,325,28,16,01,270,25*79
$GPGSV,4,4,13,35,,,*7D
$GPRMC,162919.100,A,3216.9182,N,10644.9324,W,0.01,178.30,130214,,,A*7F
$GPGGA,162919.200,3216.9182,N,10644.9324,W,1,10,0.85,1201.5,M,-26.1,M,,*64
$GPGSA,M,3,21,18,22,15,27,29,14,06,03,24,,,1.68,0.85,1.45*0A
$GPGSV,4,1,13,21,70,090,37,18,64,003,47,22,50,293,48,06,36,293,47*75
$GPGSV,4,2,13,14,34,205,43,27,31,304,43,15,28,045,43,24,25,097,44*7F
$GPGSV,4,3,13,03,17,310,45,29,13,169,36,19,03,325,28,16,01,270,25*79
$GPGSV,4,4,13,35,,,*7D
$GPRMC,162919.200,A,3216.9182,N,10644.9324,W,0.01,178.30,130214,,,A*7C
$GPGGA,162919.300,3216.9182,N,10644.9324,W,1,10,0.85,1201.5,M,-26.1,M,,*65
$GPGSA,M,3,21,18,22,15,27,29,14,06,03,24,,,1.68,0.85,1.45*0A
$GPGSV,4,1,13,21,70,090,37,18,64,003,47,22,50,293,48,06,36,293,47*75
$GPGSV,4,2,13,14,34,205,43,27,31,304,43,15,28,045,43,24,25,097,44*7F
$GPGSV,4,3,13,03,17,310,45,29,13,169,36,19,03,325,28,16,01,270,25*79
$GPGSV,4,4,13,35,,,*7D
$GPRMC,162919.300,A,3216.9182,N,10644.9324,W,0.01,178.30,130214,,,A*7D
$GPGGA,162919.400,3216.9182,N,10644.9324,W,1,10,0.85,1201.5,M,-26.1,M,,*62
$GPGSA,M,3,21,18,22,15,27,29,14,06,03,24,,,1.68,0.85,1.45*0A
$GPGSV,4,1,13,21,70,090,37,18,64,003,46,22,50,293,48,06,36,293,47*74
$GPGSV,4,2,13,14,34,205,43,27,31,304,43,15,28,045,43,24,25,097,44*7F
$GPGSV,4,3,13,03,17,310,45,29,13,169,36,19,03,325,28,16,01,270,25*79
$GPGSV,4,4,13,35,,,*7D
$GPRMC,162919.400,A,3216.9182,N,10644.9324,W,0.01,178.30,130214,,,A*7A
$GPGGA,162919.500,3216.9182,N,10644.9324,W,1,10,0.85,1201.5,M,-26.1,M,,*63
$GPGSA,M,3,21,18,22,15,27,29,14,06,03,24,,,1.68,0.85,1.45*0A
$GPGSV,4,1,13,21,70,090,37,18,64,003,46,22,50,293,47,06,36,293,47*7B
$GPGSV,4,2,13,14,34,205,43,27,31,304,43,15,28,045,43,24,25,097,44*7F
$GPGSV,4,3,13,03,17,310,45,29,13,169,36,19,03,325,28,16,01,270,25*79
$GPGSV,4,4,13,35,,,*7D
$GPRMC,162919.500,A,3216.9182,N,10644.9324,W,0.01,178.30,130214,,,A*7B
$GPGGA,162919.600,3216.9182,N,10644.9324,W,1,10,0.85,1201.5,M,-26.1,M,,*60
$GPGSA,M,3,21,18,22,15,27,29,14,06,03,24,,,1.68,0.85,1.45*0A
$GPGSV,4,1,13,21,70,090,37,18,64,003,46,22,50,293,47,06,36,293,47*7B
$GPGSV,4,2,13,14,34,205,43,27,31,304,43,15,28,045,43,24,25,097,44*7F
$GPGSV,4,3,13,03,17,310,45,29,13,169,36,19,03,325,28,16,01,270,25*79
$GPGSV,4,4,13,35,,,*7D
$GPRMC,162919.600,A,3216.9182,N,10644.9324,W,0.01,178.30,130214,,,A*78
$GPGGA,162919.700,3216.9182,N,10644.9324,W,1,10,0.85,1201.5,M,-26.1,M,,*61
$GPGSA,M,3,21,18,22,15,27,29,14,06,03,24,,,1.68,0.85,1.45*0A
$GPGSV,4,1,13,21,70,090,37,18,64,003,46,22,50,293,47,06,36,293,47*7B
$GPGSV,4,2,13,14,34,205,43,27,31,304,43,15,28,045,43,24,25,097,44*7F
$GPGSV,4,3,13,03,17,310,45,29,13,169,36,19,03,325,28,16,01,270,25*79
$GPGSV,4,4,13,35,,,*7D
$GPRMC,162919.700,A,3216.9182,N,10644.9324,W,0.01,178.30,130214,,,A*79
$GPGGA,162919.800,3216.9182,N,10644.9324,W,1,10,0.85,1201.5,M,-26.1,M,,*6E
$GPGSA,M,3,21,18,22,15,27,29,14,06,03,24,,,1.68,0.85,1.45*0A
$GPGSV,4,1,13,21,70,090,37,18,64,003,46,22,50,293,47,06,36,293,47*7B
$GPGSV,4,2,13,14,34,205,43,27,31,304,43,15,28,045,43,24,25,097,44*7F
$GPGSV,4,3,13,03,17,310,45,29,13,169,36,19,03,325,28,16,01,270,25*79
$GPGSV,4,4,13,35,,,*7D
$GPRMC,162919.800,A,3216.9182,N,10644.9324,W,0.02,178.30,130214,,,A*75
$GPGGA,162919.900,3216.9182,N,10644.9324,W,1,10,0.85,1201.5,M,-26.1,M,,*6F
$GPGSA,M,3,21,18,22,15,27,29,14,06,03,24,,,1.68,0.85,1.45*0A
$GPGSV,4,1,13,21,70,090,37,18,64,003,46,22,50,293,47,06,36,293,47*7B
$GPGSV,4,2,13,14,34,205,43,27,31,304,43,15,28,045,43,24,25,097,44*7F
$GPGSV,4,3,13,03,17,310,45,29,13,169,36,19,03,325,28,16,01,270,25*79
$GPGSV,4,4,13,35,,,*7D
$GPRMC,162919.900,A,3216.9182,N,10644.9324,W,0.02,178.30,130214,,,A*74
$GPGGA,162920.000,3216.9182,N,10644.9324,W,1,10,0.85,1201.5,M,-26.1,M,,*6C
$GPGSA,M,3,21,18,22,15,27,29,14,06,03,24,,,1.68,0.85,1.45*0A
$GPGSV,4,1,13,21,70,090,37,18,64,003,46,22,50,293,47,06,36,293,47*7B
$GPGSV,4,2,13,14,34,205,43,27,31,304,43,15,28,045,43,24,25,097,44*7F
$GPGSV,4,3,13,03,17,310,45,29,13,169,36,19,03,325,28,16,01,270,24*78
$GPGSV,4,4,13,35,,,*7D
$GPRMC,162920.000,A,3216.9182,N,10644.9324,W,0.01,178.30,130214,,,A*74
$GPGGA,162920.100,3216.9182,N,10644.9324,W,1,10,0.85,1201.5,M,-26.1,M,,*6D
$GPGSA,M,3,21,18,22,15,27,29,14,06,03,24,,,1.68,0.85,1.45*0A
$GPGSV,4,1,13,21,70,090,37,18,64,003,46,22,50,293,47,06,36,293,47*7B
$GPGSV,4,2,13,14,34,205,43,27,31,304,43,15,28,045,43,24,25,097,44*7F
$GPGSV,4,3,13,03,17,310,45,29,13,169,36,19,03,325,28,16,01,270,23*7F
$GPGSV,4,4,13,35,,,*7D
$GPRMC,162920.100,A,3216.9182,N,10644.9324,W,0.01,178.30,130214,,,A*75
$GPGGA,162920.200,3216.9182,N,10644.9324,W,1,10,0.85,1201.5,M,-26.1,M,,*6E
$GPGSA,M,3,21,18,22,15,27,29,14,06,03,24,,,1.68,0.85,1.45*0A
$GPGSV,4,1,13,21,70,090,37,18,64,003,46,22,50,293,47,06,36,293,47*7B
$GPGSV,4,2,13,14,34,205,43,27,31,304,43,15,28,045,43,24,25,097,44*7F
$GPGSV,4,3,13,03,17,310,45,29,13,169,36,19,03,325,28,16,01,270,23*7F
$GPGSV,4,4,13,36,,,*7E
$GPRMC,162920.200,A,3216.9182,N,10644.9324,W,0.01,178.30,130214,,,A*76
$GPGGA,162920.300,3216.9182,N,10644.9324,W,1,10,0.85,1201.5,M,-26.1,M,,*6F
$GPGSA,A,3,21,18,22,15,27,29,14,06,03,24,,,1.68,0.85,1.45*06
$GPGSV,4,1,13,21,70,090,37,18,64,003,46,22,50,293,47,06,36,292,47*7A
$GPGSV,4,2,13,14,34,205,43,27,31,304,43,15,28,045,43,24,25,097,44*7F
$GPGSV,4,3,13,03,17,310,45,29,13,169,36,19,03,325,28,16,01,270,23*7F
$GPGSV,4,4,13,36,,,*7E
$GPRMC,162920.300,A,3216.9182,N,10644.9324,W,0.01,178.30,130214,,,A*77
$GPGGA,162920.400,3216.9182,N,10644.9324,W,1,10,0.85,1201.5,M,-26.1,M,,*68
$GPGSA,M,3,21,18,22,15,27,29,14,06,03,24,,,1.68,0.85,1.45*0A
$GPGSV,4,1,13,21,70,090,37,18,64,003,46,22,50,293,47,06,36,292,47*7A
$GPGSV,4,2,13,14,34,205,43,27,31,304,43,15,28,045,43,24,25,097,44*7F
$GPGSV,4,3,13,03,17,310,45,29,13,169,36,19,03,325,28,16,01,270,23*7F
$GPGSV,4,4,13,36,,,*7E
$GPRMC,162920.400,A,3216.9182,N,10644.9324,W,0.02,178.30,130214,,,A*73
$GPGGA,162920.500,3216.9182,N,10644.9324,W,1,10,0.85,1201.5,M,-26.1,M,,*69
$GPGSA,M,3,21,18,22,15,27,29,14,06,03,24,,,1.68,0.85,1.45*0A
$GPGSV,4,1,13,21,70,090,37,18,64,003,46,22,50,293,47,06,36,292,47*7A
$GPGSV,4,2,13,14,34,205,43,27,31,304,43,15,28,045,43,24,25,097,44*7F
$GPGSV,4,3,13,03,17,310,45,29,13,169,36,19,03,325,28,16,01,270,23*7F
$GPGSV,4,4,13,36,,,*7E
$GPRMC,162920.500,A,3216.9182,N,10644.9324,W,0.01,178.30,130214,,,A*71
$GPGGA,162920.600,3216.9182,N,10644.9324,W,1,10,0.85,1201.5,M,-26.1,M,,*6A
$GPGSA,M,3,21,18,22,15,27,29,14,06,03,24,,,1.68,0.85,1.45*0A
$GPGSV,4,1,13,21,70,090,37,18,64,003,46,22,50,293,47,06,36,292,47*7A
$GPGSV,4,2,13,14,34,205,43,27,31,304,43,15,28,045,43,24,25,097,44*7F
$GPGSV,4,3,13,03,17,310,45,29,13,169,36,19,03,325,28,16,01,270,23*7F
$GPGSV,4,4,13,36,,,*7E
$GPRMC,162920.600,A,3216.9182,N,10644.9324,W,0.01,178.30,130214,,,A*72
$GPGGA,162920.700,3216.9182,N,10644.9324,W,1,10,0.85,1201.5,M,-26.1,M,,*6B
$GPGSA,M,3,21,18,22,15,27,29,14,06,03,24,,,1.68,0.85,1.45*0A
$GPGSV,4,1,13,21,70,090,37,18,64,003,46,22,50,293,47,06,36,292,47*7A
$GPGSV,4,2,13,14,34,205,43,27,31,304,43,15,28,045,43,24,25,097,44*7F
$GPGSV,4,3,13,03,17,310,45,29,13,169,36,19,03,325,28,16,01,270,23*7F
$GPGSV,4,4,13,36,,,*7E
$GPRMC,162920.700,A,3216.9182,N,10644.9324,W,0.01,178.30,130214,,,A*73
$GPGGA,162920.800,3216.9182,N,10644.9324,W,1,10,0.85,1201.5,M,-26.1,M,,*64
$GPGSA,M,3,21,18,22,15,27,29,14,06,03,24,,,1.68,0.85,1.45*0A
$GPGSV,4,1,13,21,70,090,37,18,64,003,46,22,50,293,47,06,36,292,47*7A
$GPGSV,4,2,13,14,34,205,43,27,31,304,43,15,28,045,43,24,25,097,44*7F
$GPGSV,4,3,13,03,17,310,45,29,13,169,36,19,03,325,28,16,01,270,23*7F
$GPGSV,4,4,13,36,,,*7E
$GPRMC,162920.800,A,3216.9182,N,10644.9324,W,0.01,178.30,130214,,,A*7C
$GPGGA,162920.900,3216.9182,N,10644.9324,W,1,10,0.85,1201.5,M,-26.1,M,,*65
$GPGSA,M,3,21,18,22,15,27,29,14,06,03,24,,,1.68,0.85,1.45*0A
$GPGSV,4,1,13,21,70,090,37,18,64,003,46,22,50,293,47,06,36,292,47*7A
$GPGSV,4,2,13,14,34,205,43,27,31,304,44,15,28,045,43,24,25,097,44*78
$GPGSV,4,3,13,03,17,310,45,29,13,169,36,19,03,325,28,16,01,270,23*7F
$GPGSV,4,4,13,36,,,*7E
$GPRMC,162920.900,A,3216.9182,N,10644.9324,W,0.02,178.30,130214,,,A*7E
$GPGGA,162921.000,3216.9182,N,10644.9324,W,1,10,0.85,1201.5,M,-26.1,M,,*6D
$GPGSA,M,3,21,18,22,15,27,29,14,06,03,24,,,1.68,0.85,1.45*0A
$GPGSV,4,1,13,21,70,090,37,18,64,003,46,22,50,293,47,06,36,292,47*7A
$GPGSV,4,2,13,14,34,205,43,27,31,304,44,15,28,045,43,24,25,097,44*78
$GPGSV,4,3,13,03,17,310,45,29,13,169,36,19,03,325,28,16,01,270,23*7F
$GPGSV,4,4,13,36,,,*7E
$GPRMC,162921.000,A,3216.9182,N,10644.9324,W,0.01,178.30,130214,,,A*75
$GPGGA,162921.100,3216.9182,N,10644.9324,W,1,10,0.85,1201.5,M,-26.1,M,,*6C
$GPGSA,M,3,21,18,22,15,27,29,14,06,03,24,,,1.68,0.85,1.45*0A
$GPGSV,4,1,13,21,70,090,37,18,64,003,46,22,50,293,47,06,36,292,47*7A
$GPGSV,4,2,13,14,34,205,43,27,31,304,44,15,28,045,43,24,25,097,44*78
$GPGSV,4,3,13,03,17,310,45,29,13,169,36,19,03,325,28,16,01,270,23*7F
$GPGSV,4,4,13,36,,,*7E
$GPRMC,162921.100,A,3216.9182,N,10644.9324,W,0.01,178.30,130214,,,A*74
$GPGGA,162921.200,3216.9182,N,10644.9324,W,1,10,0.85,1201.5,M,-26.1,M,,*6F
$GPGSA,M,3,21,18,22,15,27,29,14,06,03,24,,,1.68,0.85,1.45*0A
$GPGSV,4,1,13,21,70,090,37,18,64,003,46,22,50,293,47,06,36,292,47*7A
$GPGSV,4,2,13,14,34,205,43,27,31,304,44,15,28,045,43,24,25,097,44*78
$GPGSV,4,3,13,03,17,310,45,29,13,169,36,19,03,325,28,16,01,270,23*7F
$GPGSV,4,4,13,36,,,*7E
$GPRMC,162921.200,A,3216.9182,N,10644.9324,W,0.02,178.30,130214,,,A*74
$GPGGA,162921.300,3216.9182,N,10644.9324,W,1,10,0.85,1201.5,M,-26.1,M,,*6E
$GPGSA,M,3,21,18,22,15,27,29,14,06,03,24,,,1.68,0.85,1.45*0A
$GPGSV,4,1,13,21,70,090,37,18,64,003,46,22,50,293,47,06,36,292,47*7A
$GPGSV,4,2,13,14,34,205,43,27,31,304,44,15,28,045,43,24,25,097,44*78
$GPGSV,4,3,13,03,17,310,45,29,13,169,36,19,03,325,28,16,01,270,23*7F
$GPGSV,4,4,13,36,,,*7E
$GPRMC,162921.300,A,3216.9182,N,10644.9324,W,0.01,178.30,130214,,,A*76
$GPGGA,162921.400,3216.9182,N,10644.9324,W,1,10,0.85,1201.5,M,-26.1,M,,*69
$GPGSA,M,3,21,18,22,15,27,29,14,06,03,24,,,1.68,0.85,1.45*0A
$GPGSV,4,1,13,21,70,090,37,18,64,003,46,22,50,293,47,06,36,292,47*7A
$GPGSV,4,2,13,14,34,205,43,27,31,304,44,15,28,045,43,24,25,097,44*78
$GPGSV,4,3,13,03,17,310,45,29,13,169,36,19,03,325,28,16,01,270,23*7F
$GPGSV,4,4,13,36,,,*7E
$GPRMC,162921.400,A,3216.9182,N,10644.9324,W,0.02,178.30,130214,,,A*72
$GPGGA,162921.500,3216.9182,N,10644.9324,W,1,10,0.85,1201.5,M,-26.1,M,,*68
$GPGSA,M,3,21,18,22,15,27,29,14,06,03,24,,,1.68,0.85,1.45*0A
$GPGSV,4,1,13,21,70,090,37,18,64,003,46,22,50,293,47,06,36,292,47*7A
$GPGSV,4,2,13,14,34,205,43,27,31,304,44,15,28,045,43,24,25,097,44*78
$GPGSV,4,3,13,03,17,310,45,29,13,169,36,19,03,325,28,16,01,270,23*7F
$GPGSV,4,4,13,36,,,*7E
$GPRMC,162921.500,A,3216.9182,N,10644.9324,W,0.02,178.30,130214,,,A*73
$GPGGA,162921.600,3216.9182,N,10644.9324,W,1,10,0.85,1201.6,M,-26.1,M,,*68
$GPGSA,M,3,21,18,22,15,27,29,14,06,03,24,,,1.68,0.85,1.45*0A
$GPGSV,4,1,13,21,70,090,37,18,64,003,46,22,50,293,47,06,36,292,47*7A
$GPGSV,4,2,13,14,34,205,43,27,31,304,44,15,28,045,43,24,25,097,44*78
$GPGSV,4,3,13,03,17,310,45,29,13,169,36,19,03,325,28,16,01,270,23*7F
$GPGSV,4,4,13,36,,,*7E
$GPRMC,162921.600,A,3216.9182,N,10644.9324,W,0.01,178.30,130214,,,A*73
$GPGGA,162921.700,3216.9182,N,10644.9324,W,1,10,0.85,1201.6,M,-26.1,M,,*69
$GPGSA,M,3,21,18,22,15,27,29,14,06,03,24,,,1.68,0.85,1.45*0A
$GPGSV,4,1,13,21,70,090,37,18,64,003,46,22,50,293,47,06,36,292,47*7A
$GPGSV,4,2,13,14,34,205,43,27,31,304,44,15,28,045,43,24,25,097,44*78
$GPGSV,4,3,13,03,17,310,45,29,13,169,36,19,03,325,28,16,01,270,23*7F
$GPGSV,4,4,13,36,,,*7E
$GPRMC,162921.700,A,3216.9182,N,10644.9324,W,0.01,178.30,130214,,,A*72
$GPGGA,162921.800,3216.9182,N,10644.9324,W,1,10,0.85,1201.6,M,-26.1,M,,*66
$GPGSA,M,3,21,18,22,15,27,29,14,06,03,24,,,1.68,0.85,1.45*0A
$GPGSV,4,1,13,21,70,090,37,18,64,003,46,22,50,293,47,06,36,292,47*7A
$GPGSV,4,2,13,14,34,205,43,27,31,304,44,15,28,045,43,24,25,097,44*78
$GPGSV,4,3,13,03,17,310,45,29,13,169,36,19,03,325,28,16,01,270,23*7F
$GPGSV,4,4,13,36,,,*7E
$GPRMC,162921.800,A,3216.9182,N,10644.9324,W,0.01,178.30,130214,,,A*7D
$GPGGA,162921.900,3216.9182,N,10644.9324,W,1,10,0.85,1201.6,M,-26.1,M,,*67
$GPGSA,M,3,21,18,22,15,27,29,14,06,03,24,,,1.68,0.85,1.45*0A
$GPGSV,4,1,13,21,70,090,37,18,64,003,46,22,50,293,47,06,36,292,47*7A
$GPGSV,4,2,13,14,34,205,43,27,31,304,44,15,28,045,43,24,25,097,44*78
$GPGSV,4,3,13,03,17,310,45,29,13,169,36,19,03,325,28,16,01,270,22*7E
$GPGSV,4,4,13,36,,,*7E
$GPRMC,162921.900,A,3216.9182,N,10644.9324,W,0.01,178.30,130214,,,A*7C
$GPGGA,162922.000,3216.9182,N,10644.9324,W,1,10,0.85,1201.6,M,-26.1,M,,*6D
$GPGSA,M,3,21,18,22,15,27,29,14,06,03,24,,,1.68,0.85,1.45*0A
$GPGSV,4,1,13,21,70,090,37,18,64,003,46,22,50,293,47,06,36,292,47*7A
$GPGSV,4,2,13,14,34,205,43,27,31,304,44,15,28,045,43,24,25,097,44*78
$GPGSV,4,3,13,03,17,310,45,29,13,169,36,19,03,325,28,16,01,270,22*7E
$GPGSV,4,4,13,36,,,*7E
$GPRMC,162922.000,A,3216.9182,N,10644.9324,W,0.01,178.30,130214,,,A*76
$GPGGA,162922.100,3216.9182,N,10644.9324,W,1,10,0.85,1201.6,M,-26.1,M,,*6C
$GPGSA,M,3,21,18,22,15,27,29,14,06,03,24,,,1.68,0.85,1.45*0A
$GPGSV,4,1,13,21,70,090,37,18,64,003,46,22,50,293,47,06,36,292,47*7A
$GPGSV,4,2,13,14,34,205,43,27,31,304,44,15,28,045,43,24,25,097,44*78
$GPGSV,4,3,13,03,17,310,45,29,13,169,36,19,03,325,28,16,01,270,22*7E
$GPGSV,4,4,13,36,,,*7E
$GPRMC,162922.100,A,3216.9182,N,10644.9324,W,0.01,178.30,130214,,,A*77
$GPGGA,162922.200,3216.9182,N,10644.9324,W,1,10,0.85,1201.6,M,-26.1,M,,*6F
$GPGSA,M,3,21,18,22,15,27,29,14,06,03,24,,,1.68,0.85,1.45*0A
$GPGSV,4,1,13,21,70,090,37,18,64,003,46,22,50,293,47,06,36,292,47*7A
$GPGSV,4,2,13,14,34,205,43,27,31,304,44,15,28,045,43,24,25,097,44*78
$GPGSV,4,3,13,03,17,310,45,29,13,169,36,19,03,325,28,16,01,270,22*7E
$GPGSV,4,4,13,36,,,*7E
$GPRMC,162922.200,A,3216.9182,N,10644.9324,W,0.01,178.30,130214,,,A*74
