$GPGGA,222916.400,2957.6702,N,09540.1893,W,2,10,0.82,44.3,M,-23.6,M,0000,0000*66
$GPGSA,A,3,18,15,22,24,29,09,06,21,26,03,,,1.69,0.82,1.49*01
$GPGSV,3,1,11,21,77,029,30,18,58,333,47,51,52,202,30,24,46,111,31*73
$GPGSV,3,2,11,06,39,206,35,15,34,042,39,22,32,284,36,09,31,121,35*7C
$GPGSV,3,3,11,29,24,182,30,26,22,039,23,03,12,313,36*47
$GPRMC,222916.400,A,2957.6702,N,09540.1893,W,0.00,2.57,060208,,,D*7C
$GPGGA,222916.600,2957.6702,N,09540.1893,W,2,10,0.82,44.3,M,-23.6,M,0000,0000*64
$GPGSA,A,3,18,15,22,24,29,09,06,21,26,03,,,1.69,0.82,1.49*01
$GPGSV,3,1,11,21,77,029,30,18,58,333,49,51,52,202,30,24,46,111,31*7D
$GPGSV,3,2,11,06,39,206,34,15,34,042,39,22,33,284,34,09,31,121,34*7F
$GPGSV,3,3,11,29,24,182,30,26,22,039,23,03,12,313,35*44
$GPRMC,222916.600,A,2957.6702,N,09540.1893,W,0.00,2.57,060208,,,D*7E
$GPGGA,222916.800,2957.6702,N,09540.1893,W,2,10,0.82,44.3,M,-23.6,M,0000,0000*6A
$GPGSA,A,3,18,15,22,24,29,09,06,21,26,03,,,1.69,0.82,1.49*01
$GPGSV,3,1,11,21,77,029,30,18,58,333,48,51,52,202,31,24,46,111,31*7D
$GPGSV,3,2,11,06,39,206,34,15,34,042,39,22,33,284,34,09,31,121,34*7F
$GPGSV,3,3,11,29,24,182,29,26,22,039,23,03,12,313,35*4C
$GPRMC,222916.800,A,2957.6702,N,09540.1893,W,0.00,2.57,060208,,,D*70
$GPGGA,222917.000,2957.6702,N,09540.1893,W,2,9,0.92,44.3,M,-23.6,M,0000,0000*5A
$GPGSA,A,3,18,15,22,24,29,09,06,21,03,,,,1.87,0.92,1.63*0C
$GPGSV,3,1,11,21,77,029,30,18,58,333,49,51,52,202,30,24,46,111,32*7E
$GPGSV,3,2,11,06,39,206,35,15,34,042,39,22,33,284,34,09,31,121,35*7F
$GPGSV,3,3,11,29,24,182,29,26,22,039,22,03,12,313,35*4D
$GPRMC,222917.000,A,2957.6702,N,09540.1893,W,0.00,2.57,060208,,,D*79
$GPGGA,222917.200,2957.6702,N,09540.1893,W,2,10,0.82,44.3,M,-23.6,M,0000,0000*61
$GPGSA,A,3,18,15,22,24,29,09,06,21,26,03,,,1.69,0.82,1.49*01
$GPGSV,3,1,11,21,77,029,30,18,58,333,48,51,52,202,31,24,46,111,32*7E
$GPGSV,3,2,11,06,39,206,34,15,34,042,39,22,33,284,34,09,31,121,34*7F
$GPGSV,3,3,11,29,24,182,29,26,22,039,22,03,12,313,35*4D
$GPRMC,222917.200,A,2957.6702,N,09540.1893,W,0.00,2.57,060208,,,D*7B
$GPGGA,222917.400,2957.6702,N,09540.1893,W,2,9,0.92,44.3,M,-23.6,M,0000,0000*5E
$GPGSA,A,3,18,15,22,24,29,09,06,21,03,,,,1.87,0.92,1.63*0C
$GPGSV,3,1,11,21,77,029,30,18,58,333,49,51,52,202,30,24,46,111,32*7E
$GPGSV,3,2,11,06,39,206,34,15,34,042,39,22,33,284,34,09,31,121,34*7F
$GPGSV,3,3,11,29,24,182,29,26,22,039,22,03,12,313,35*4D
$GPRMC,222917.400,A,2957.6702,N,09540.1893,W,0.00,2.57,060208,,,D*7D
$GPGGA,222917.600,2957.6702,N,09540.1893,W,2,9,0.92,44.3,M,-23.6,M,0000,0000*5C
$GPGSA,A,3,18,15,22,24,29,09,06,21,03,,,,1.87,0.92,1.63*0C
$GPGSV,3,1,11,21,77,029,31,18,58,333,49,51,52,202,30,24,46,111,32*7F
$GPGSV,3,2,11,06,39,206,35,15,34,042,39,22,33,284,34,09,31,121,34*7E
$GPGSV,3,3,11,29,24,182,29,26,22,039,22,03,12,313,35*4D
$GPRMC,222917.600,A,2957.6702,N,09540.1893,W,0.00,2.57,060208,,,D*7F
$GPGGA,222917.800,2957.6702,N,09540.1893,W,2,10,0.82,44.3,M,-23.6,M,0000,0000*6B
$GPGSA,A,3,18,15,22,24,29,09,06,21,26,03,,,1.69,0.82,1.49*01
$GPGSV,3,1,11,21,77,029,31,18,58,333,48,51,52,202,31,24,46,111,32*7F
$GPGSV,3,2,11,06,39,206,34,15,34,042,39,22,33,284,35,09,31,121,34*7E
$GPGSV,3,3,11,29,24,182,29,26,22,039,22,03,12,313,36*4E
$GPRMC,222917.800,A,2957.6702,N,09540.1893,W,0.00,2.57,060208,,,D*71
$GPGGA,222918.000,2957.6702,N,09540.1893,W,2,10,0.82,44.3,M,-23.6,M,0000,0000*6C
$GPGSA,A,3,18,15,22,24,29,09,06,21,26,03,,,1.69,0.82,1.49*01
$GPGSV,3,1,11,21,77,029,30,18,58,333,48,51,52,202,31,24,46,111,32*7E
$GPGSV,3,2,11,06,39,206,34,15,34,042,38,22,33,284,35,09,31,121,34*7F
$GPGSV,3,3,11,29,24,182,29,26,22,039,23,03,12,313,35*4C
$GPRMC,222918.000,A,2957.6702,N,09540.1893,W,0.00,2.57,060208,,,D*76
$GPGGA,222918.200,2957.6702,N,09540.1893,W,2,10,0.81,44.3,M,-23.6,M,0000,0000*6D
$GPGSA,A,3,18,15,22,24,29,09,06,21,26,03,,,1.69,0.81,1.48*03
$GPGSV,3,1,11,21,77,029,30,18,58,333,48,51,52,202,30,24,46,111,32*7F
$GPGSV,3,2,11,06,39,206,34,15,34,042,38,22,33,284,34,09,31,121,34*7E
$GPGSV,3,3,11,29,24,182,29,26,22,039,23,03,12,313,35*4C
$GPRMC,222918.200,A,2957.6702,N,09540.1893,W,0.00,2.57,060208,,,D*74
$GPGGA,222918.400,2957.6702,N,09540.1893,W,2,10,0.81,44.3,M,-23.6,M,0000,0000*6B
$GPGSA,A,3,18,15,22,24,29,09,06,21,26,03,,,1.69,0.81,1.48*03
$GPGSV,3,1,11,21,77,029,30,18,58,333,48,51,52,202,30,24,46,111,32*7F
$GPGSV,3,2,11,06,39,206,34,15,34,042,38,22,33,284,34,09,31,121,33*79
$GPGSV,3,3,11,29,24,182,29,26,22,039,23,03,12,313,35*4C
$GPRMC,222918.400,A,2957.6702,N,09540.1893,W,0.00,2.57,060208,,,D*72
$GPGGA,222918.600,2957.6702,N,09540.1892,W,2,10,0.82,44.3,M,-23.6,M,0000,0000*6B
$GPGSA,A,3,18,15,22,24,29,09,06,21,26,03,,,1.69,0.82,1.49*01
$GPGSV,3,1,11,21,77,029,30,18,58,333,48,51,52,202,30,24,46,111,32*7F
$GPGSV,3,2,11,06,39,206,34,15,34,042,38,22,33,284,34,09,31,121,33*79
$GPGSV,3,3,11,29,24,182,29,26,22,039,22,03,12,313,35*4D
$GPRMC,222918.600,A,2957.6702,N,09540.1892,W,0.00,2.57,060208,,,D*71
$GPGGA,222918.800,2957.6702,N,09540.1892,W,2,10,0.81,44.3,M,-23.6,M,0000,0000*66
$GPGSA,A,3,18,15,22,24,29,09,06,21,26,03,,,1.69,0.81,1.48*03
$GPGSV,3,1,11,21,77,029,30,18,58,333,48,51,52,202,30,24,46,111,32*7F
$GPGSV,3,2,11,06,39,206,34,15,34,042,39,22,33,284,34,09,31,121,33*78
$GPGSV,3,3,11,29,24,182,29,26,22,039,22,03,12,313,35*4D
$GPRMC,222918.800,A,2957.6702,N,09540.1892,W,0.00,2.57,060208,,,D*7F
$GPGGA,222919.000,2957.6702,N,09540.1892,W,2,10,0.81,44.3,M,-23.6,M,0000,0000*6F
$GPGSA,A,3,18,15,22,24,29,09,06,21,26,03,,,1.69,0.81,1.48*03
$GPGSV,3,1,11,21,77,029,29,18,58,333,46,51,52,202,29,24,46,111,32*71
$GPGSV,3,2,11,06,39,206,34,15,34,042,38,22,33,284,34,09,31,121,33*79
$GPGSV,3,3,11,29,24,182,30,26,22,039,22,03,12,313,35*45
$GPRMC,222919.000,A,2957.6702,N,09540.1892,W,0.00,2.57,060208,,,D*76
$GPGGA,222919.200,2957.6702,N,09540.1892,W,2,9,0.92,44.3,M,-23.6,M,0000,0000*57
$GPGSA,A,3,18,15,22,24,29,09,06,21,03,,,,1.87,0.92,1.63*0C
$GPGSV,3,1,11,21,77,029,29,18,58,333,49,51,52,202,28,24,46,111,30*7D
$GPGSV,3,2,11,06,39,206,33,15,34,042,37,22,33,284,33,09,31,121,33*76
$GPGSV,3,3,11,29,24,182,29,26,22,039,21,03,12,313,35*4E
$GPRMC,222919.200,A,2957.6702,N,09540.1892,W,0.00,2.57,060208,,,D*74
$GPGGA,222919.400,2957.6702,N,09540.1892,W,2,9,0.92,44.3,M,-23.6,M,0000,0000*51
$GPGSA,A,3,18,15,22,24,29,09,06,21,03,,,,1.87,0.92,1.63*0C
$GPGSV,3,1,11,21,77,029,28,18,58,333,49,51,52,202,28,24,46,111,30*7C
$GPGSV,3,2,11,06,39,206,33,15,34,042,40,22,33,284,33,09,31,121,33*76
$GPGSV,3,3,11,29,24,182,29,26,22,039,21,03,12,313,35*4E
$GPRMC,222919.400,A,2957.6702,N,09540.1892,W,0.00,2.57,060208,,,D*72
$GPGGA,222919.600,2957.6702,N,09540.1892,W,2,9,0.92,44.3,M,-23.6,M,0000,0000*53
$GPGSA,A,3,18,15,22,24,29,09,06,21,03,,,,1.87,0.92,1.63*0C
$GPGSV,3,1,11,21,77,029,28,18,58,333,49,51,52,202,28,24,46,111,32*7E
$GPGSV,3,2,11,06,39,206,35,15,34,042,39,22,33,284,35,09,31,121,33*78
$GPGSV,3,3,11,29,24,182,30,26,22,039,21,03,12,313,36*45
$GPRMC,222919.600,A,2957.6702,N,09540.1892,W,0.00,2.57,060208,,,D*70
$GPGGA,222919.800,2957.6702,N,09540.1892,W,2,10,0.81,44.3,M,-23.6,M,0000,0000*67
$GPGSA,A,3,18,15,22,24,29,09,06,21,26,03,,,1.69,0.81,1.49*02
$GPGSV,3,1,11,21,77,029,31,18,58,333,48,51,52,202,31,24,46,111,32*7F
$GPGSV,3,2,11,06,39,206,35,15,34,042,39,22,33,284,35,09,31,121,34*7F
$GPGSV,3,3,11,29,24,182,30,26,22,039,23,03,12,313,36*47
$GPRMC,222919.800,A,2957.6702,N,09540.1892,W,0.00,2.57,060208,,,D*7E
$GPGGA,222920.000,2957.6702,N,09540.1892,W,2,10,0.82,44.3,M,-23.6,M,0000,0000*66
$GPGSA,A,3,18,15,22,24,29,09,06,21,26,03,,,1.69,0.82,1.48*00
$GPGSV,3,1,11,21,77,029,31,18,58,333,48,51,52,202,30,24,46,111,31*7D
$GPGSV,3,2,11,06,39,206,35,15,34,042,39,22,33,284,35,09,31,121,34*7F
$GPGSV,3,3,11,29,24,182,30,26,22,039,23,03,12,313,36*47
$GPRMC,222920.000,A,2957.6702,N,09540.1892,W,0.00,2.57,060208,,,D*7C
$GPGGA,222920.200,2957.6702,N,09540.1892,W,2,10,0.81,44.3,M,-23.6,M,0000,0000*67
$GPGSA,A,3,18,15,22,24,29,09,06,21,26,03,,,1.69,0.81,1.48*03
$GPGSV,3,1,11,21,77,029,30,18,58,333,48,51,52,202,30,24,46,111,32*7F
$GPGSV,3,2,11,06,39,206,35,15,34,042,39,22,33,284,35,09,31,121,34*7F
$GPGSV,3,3,11,29,24,182,30,26,22,039,23,03,12,313,36*47
$GPRMC,222920.200,A,2957.6702,N,09540.1892,W,0.00,2.57,060208,,,D*7E
$GPGGA,222920.400,2957.6702,N,09540.1892,W,2,10,0.82,44.3,M,-23.6,M,0000,0000*62
$GPGSA,A,3,18,15,22,24,29,09,06,21,26,03,,,1.69,0.82,1.49*01
$GPGSV,3,1,11,21,77,029,30,18,58,333,48,51,52,202,30,24,46,111,32*7F
$GPGSV,3,2,11,06,39,206,35,15,34,042,39,22,33,284,35,09,31,121,33*78
$GPGSV,3,3,11,29,24,182,30,26,22,039,25,03,12,313,36*41
$GPRMC,222920.400,A,2957.6702,N,09540.1892,W,0.00,2.57,060208,,,D*78
$GPGGA,222920.600,2957.6702,N,09540.1892,W,2,10,0.81,44.3,M,-23.6,M,0000,0000*63
$GPGSA,A,3,18,15,22,24,29,09,06,21,26,03,,,1.69,0.81,1.48*03
$GPGSV,3,1,11,21,77,029,30,18,58,333,49,51,52,202,31,24,46,111,32*7F
$GPGSV,3,2,11,06,39,206,35,15,34,042,39,22,33,284,35,09,31,121,33*78
$GPGSV,3,3,11,29,24,182,30,26,22,039,25,03,12,313,36*41
$GPRMC,222920.600,A,2957.6702,N,09540.1892,W,0.00,2.57,060208,,,D*7A
$GPGGA,222920.800,2957.6702,N,09540.1892,W,2,10,0.81,44.3,M,-23.6,M,0000,0000*6D
$GPGSA,A,3,18,15,22,24,29,09,06,21,26,03,,,1.69,0.81,1.48*03
$GPGSV,3,1,11,21,77,029,30,18,58,333,48,51,52,202,30,24,46,111,32*7F
$GPGSV,3,2,11,06,39,206,35,15,34,042,39,22,33,284,35,09,31,121,33*78
$GPGSV,3,3,11,29,24,182,29,26,22,039,24,03,12,313,36*48
$GPRMC,222920.800,A,2957.6702,N,09540.1892,W,0.00,2.57,060208,,,D*74
$GPGGA,222921.000,2957.6702,N,09540.1892,W,2,10,0.81,44.3,M,-23.6,M,0000,0000*64
$GPGSA,A,3,18,15,22,24,29,09,06,21,26,03,,,1.69,0.81,1.48*03
$GPGSV,3,1,11,21,77,029,30,18,58,333,49,51,52,202,31,24,46,111,32*7F
$GPGSV,3,2,11,06,39,206,36,15,34,042,39,22,33,284,34,09,31,121,34*7D
$GPGSV,3,3,11,29,24,182,30,26,22,039,24,03,12,313,36*40
$GPRMC,222921.000,A,2957.6702,N,09540.1892,W,0.00,2.57,060208,,,D*7D
$GPGGA,222921.200,2957.6702,N,09540.1892,W,2,10,0.81,44.3,M,-23.6,M,0000,0000*66
$GPGSA,A,3,18,15,22,24,29,09,06,21,26,03,,,1.69,0.81,1.48*03
$GPGSV,3,1,11,21,77,029,29,18,58,333,48,51,52,202,31,24,46,111,32*76
$GPGSV,3,2,11,06,39,206,36,15,34,042,39,22,33,284,34,09,31,121,34*7D
$GPGSV,3,3,11,29,24,182,30,26,22,039,24,03,12,313,36*40
$GPRMC,222921.200,A,2957.6702,N,09540.1892,W,0.00,2.57,060208,,,D*7F
$GPGGA,222921.400,2957.6702,N,09540.1892,W,2,10,0.81,44.3,M,-23.6,M,0000,0000*60
$GPGSA,A,3,18,15,22,24,29,09,06,21,26,03,,,1.69,0.81,1.48*03
$GPGSV,3,1,11,21,77,029,29,18,58,333,49,51,52,202,30,24,46,111,32*76
$GPGSV,3,2,11,06,39,206,35,15,34,042,40,22,33,284,35,09,31,121,33*76
$GPGSV,3,3,11,29,24,182,29,26,22,039,23,03,12,313,36*4F
$GPRMC,222921.400,A,2957.6702,N,09540.1892,W,0.00,2.57,060208,,,D*79
$GPGGA,222921.600,2957.6702,N,09540.1892,W,2,10,0.81,44.3,M,-23.6,M,0000,0000*62
$GPGSA,A,3,18,15,22,24,29,09,06,21,26,03,,,1.69,0.81,1.48*03
$GPGSV,3,1,11,21,77,029,30,18,58,333,49,51,52,202,30,24,46,111,32*7E
$GPGSV,3,2,11,06,39,206,35,15,33,042,39,22,33,284,35,09,31,121,33*7F
$GPGSV,3,3,11,29,24,182,29,26,22,039,23,03,12,313,36*4F
$GPRMC,222921.600,A,2957.6702,N,09540.1892,W,0.00,2.57,060208,,,D*7B
$GPGGA,222921.800,2957.6702,N,09540.1892,W,2,10,0.81,44.3,M,-23.6,M,0000,0000*6C
$GPGSA,A,3,18,15,22,24,29,09,06,21,26,03,,,1.69,0.81,1.49*02
$GPGSV,3,1,11,21,77,029,30,18,58,333,48,51,52,202,30,24,46,111,32*7F
$GPGSV,3,2,11,06,39,206,35,15,33,042,39,22,33,284,34,09,31,121,33*7E
$GPGSV,3,3,11,29,24,182,30,26,22,039,23,03,12,313,36*47
$GPRMC,222921.800,A,2957.6702,N,09540.1892,W,0.00,2.57,060208,,,D*75
$GPGGA,222922.000,2957.6702,N,09540.1892,W,2,10,0.81,44.3,M,-23.6,M,0000,0000*67
$GPGSA,A,3,18,15,22,24,29,09,06,21,26,03,,,1.69,0.81,1.48*03
$GPGSV,3,1,11,21,77,029,29,18,58,333,49,51,52,202,29,24,46,111,31*7D
$GPGSV,3,2,11,06,39,206,36,15,33,042,39,22,33,284,34,09,31,121,33*7D
$GPGSV,3,3,11,29,24,182,30,26,22,039,23,03,12,313,36*47
$GPRMC,222922.000,A,2957.6702,N,09540.1892,W,0.00,2.57,060208,,,D*7E
$GPGGA,222922.200,2957.6702,N,09540.1892,W,2,10,0.81,44.3,M,-23.6,M,0000,0000*65
$GPGSA,A,3,18,15,22,24,29,09,06,21,26,03,,,1.69,0.81,1.49*02
$GPGSV,3,1,11,21,77,029,29,18,58,333,48,51,52,202,29,24,46,111,32*7F
$GPGSV,3,2,11,06,39,206,35,15,33,042,39,22,33,284,34,09,31,121,33*7E
$GPGSV,3,3,11,29,24,182,29,26,22,039,22,03,12,313,36*4E
$GPRMC,222922.200,A,2957.6702,N,09540.1892,W,0.00,2.57,060208,,,D*7C
$GPGGA,222922.400,2957.6702,N,09540.1892,W,2,10,0.81,44.3,M,-23.6,M,0000,0000*63
$GPGSA,A,3,18,15,22,24,29,09,06,21,26,03,,,1.69,0.81,1.48*03
$GPGSV,3,1,11,21,77,029,29,18,58,333,48,51,52,202,30,24,46,111,32*77
$GPGSV,3,2,11,06,39,206,35,15,33,042,39,22,33,284,34,09,31,121,32*7F
$GPGSV,3,3,11,29,24,182,29,26,22,039,22,03,12,313,35*4D
$GPRMC,222922.400,A,2957.6702,N,09540.1892,W,0.00,2.57,060208,,,D*7A
$GPGGA,222922.600,2957.6702,N,09540.1892,W,2,10,0.81,44.3,M,-23.6,M,0000,0000*61
$GPGSA,A,3,18,15,22,24,29,09,06,21,26,03,,,1.69,0.81,1.48*03
$GPGSV,3,1,11,21,77,029,29,18,58,333,48,51,52,202,31,24,46,111,31*75
$GPGSV,3,2,11,06,39,206,35,15,33,042,38,22,33,284,34,09,31,121,32*7E
$GPGSV,3,3,11,29,24,182,29,26,22,039,22,03,12,313,35*4D
$GPRMC,222922.600,A,2957.6702,N,09540.1892,W,0.00,2.57,060208,,,D*78
$GPGGA,222922.800,2957.6702,N,09540.1892,W,2,9,0.92,44.3,M,-23.6,M,0000,0000*55
$GPGSA,A,3,18,15,22,24,29,09,06,21,03,,,,1.87,0.92,1.63*0C
$GPGSV,3,1,11,21,77,029,30,18,58,333,48,51,52,202,31,24,46,111,31*7D
$GPGSV,3,2,11,06,39,206,35,15,33,042,39,22,33,284,34,09,31,121,32*7F
$GPGSV,3,3,11,29,24,182,29,26,22,039,21,03,12,313,36*4D
$GPRMC,222922.800,A,2957.6702,N,09540.1892,W,0.00,2.57,060208,,,D*76
$GPGGA,222923.000,2957.6702,N,09540.1892,W,2,9,0.92,44.3,M,-23.6,M,0000,0000*5C
$GPGSA,A,3,18,15,22,24,29,09,06,21,03,,,,1.87,0.92,1.63*0C
$GPGSV,3,1,11,21,77,029,30,18,58,333,48,51,52,202,31,24,46,111,31*7D
$GPGSV,3,2,11,06,39,206,36,15,33,042,39,22,33,284,34,09,31,121,32*7C
$GPGSV,3,3,11,29,24,182,29,26,22,039,21,03,12,313,36*4D
$GPRMC,222923.000,A,2957.6702,N,09540.1892,W,0.00,2.57,060208,,,D*7F
$GPGGA,222923.200,2957.6702,N,09540.1892,W,2,10,0.81,44.3,M,-23.6,M,0000,0000*64
$GPGSA,A,3,18,15,22,24,29,09,06,21,26,03,,,1.69,0.81,1.48*03
$GPGSV,3,1,11,21,77,029,30,18,58,333,49,51,52,202,30,24,46,111,31*7D
$GPGSV,3,2,11,06,39,206,36,15,33,042,39,22,33,284,34,09,31,121,32*7C
$GPGSV,3,3,11,29,24,182,30,26,22,039,24,03,12,313,36*40
$GPRMC,222923.200,A,2957.6702,N,09540.1892,W,0.00,2.57,060208,,,D*7D
$GPGGA,222923.400,2957.6702,N,09540.1892,W,2,10,0.81,44.3,M,-23.6,M,0000,0000*62
$GPGSA,A,3,18,15,22,24,29,09,06,21,26,03,,,1.69,0.81,1.48*03
$GPGSV,3,1,11,21,77,029,30,18,58,333,48,51,52,202,30,24,46,111,31*7C
$GPGSV,3,2,11,06,39,206,35,15,33,042,39,22,33,284,33,09,31,121,32*78
$GPGSV,3,3,11,29,24,182,30,26,22,039,24,03,12,313,36*40
$GPRMC,222923.400,A,2957.6702,N,09540.1892,W,0.00,2.57,060208,,,D*7B
$GPGGA,222923.600,2957.6702,N,09540.1892,W,2,10,0.81,44.3,M,-23.6,M,0000,0000*60
$GPGSA,A,3,18,15,22,24,29,09,06,21,26,03,,,1.69,0.81,1.48*03
$GPGSV,3,1,11,21,77,029,30,18,58,333,49,51,52,202,30,24,46,111,32*7E
$GPGSV,3,2,11,06,39,206,36,15,33,042,39,22,33,284,33,09,31,121,32*7B
$GPGSV,3,3,11,29,24,182,29,26,22,039,24,03,12,313,36*48
$GPRMC,222923.600,A,2957.6702,N,09540.1892,W,0.00,2.57,060208,,,D*79
$GPGGA,222923.800,2957.6702,N,09540.1892,W,2,10,0.81,44.3,M,-23.6,M,0000,0000*6E
$GPGSA,A,3,18,15,22,24,29,09,06,21,26,03,,,1.69,0.81,1.48*03
$GPGSV,3,1,11,21,77,029,30,18,58,333,48,51,52,202,32,24,46,111,32*7D
$GPGSV,3,2,11,06,39,206,36,15,33,042,39,22,33,284,34,09,31,121,33*7D
$GPGSV,3,3,11,29,24,182,29,26,22,039,23,03,12,313,36*4F
$GPRMC,222923.800,A,2957.6702,N,09540.1892,W,0.00,2.57,060208,,,D*77
$GPGGA,222924.000,2957.6702,N,09540.1892,W,2,10,0.81,44.3,M,-23.6,M,0000,0000*61
$GPGSA,A,3,18,15,22,24,29,09,06,21,26,03,,,1.69,0.81,1.49*02
$GPGSV,3,1,11,21,77,029,30,18,58,333,48,51,52,202,31,24,46,111,32*7E
$GPGSV,3,2,11,06,39,206,36,15,33,042,39,22,33,284,33,09,31,121,33*7A
$GPGSV,3,3,11,29,24,182,30,26,22,039,23,03,12,313,36*47
$GPRMC,222924.000,A,2957.6702,N,09540.1892,W,0.00,2.57,060208,,,D*78
$GPGGA,222924.200,2957.6702,N,09540.1892,W,2,10,0.81,44.3,M,-23.6,M,0000,0000*63
$GPGSA,A,3,18,15,22,24,29,09,06,21,26,03,,,1.69,0.81,1.49*02
$GPGSV,3,1,11,21,77,029,29,18,58,333,48,51,52,202,29,24,46,111,32*7F
$GPGSV,3,2,11,06,39,206,35,15,33,042,39,22,33,284,33,09,31,121,32*78
$GPGSV,3,3,11,29,24,182,30,26,22,039,22,03,12,313,36*46
$GPRMC,222924.200,A,2957.6702,N,09540.1892,W,0.00,2.57,060208,,,D*7A
$GPGGA,222924.400,2957.6702,N,09540.1892,W,2,10,0.81,44.3,M,-23.6,M,0000,0000*65
$GPGSA,A,3,18,15,22,24,29,09,06,21,26,03,,,1.69,0.81,1.48*03
$GPGSV,3,1,11,21,77,029,29,18,58,333,48,51,52,202,29,24,46,111,32*7F
$GPGSV,3,2,11,06,39,206,35,15,33,042,38,22,33,284,34,09,31,121,32*7E
$GPGSV,3,3,11,29,24,182,29,26,22,039,22,03,12,313,36*4E
$GPRMC,222924.400,A,2957.6702,N,09540.1892,W,0.00,2.57,060208,,,D*7C
$GPGGA,222924.600,2957.6702,N,09540.1892,W,2,10,0.81,44.3,M,-23.6,M,0000,0000*67
$GPGSA,A,3,18,15,22,24,29,09,06,21,26,03,,,1.69,0.81,1.48*03
$GPGSV,3,1,11,21,77,029,29,18,58,333,48,51,52,202,31,24,46,111,31*75
$GPGSV,3,2,11,06,39,206,36,15,33,042,38,22,33,284,34,09,31,121,32*7D
$GPGSV,3,3,11,29,24,182,29,26,22,039,22,03,12,313,36*4E
$GPRMC,222924.600,A,2957.6702,N,09540.1892,W,0.00,2.57,060208,,,D*7E
$GPGGA,222924.800,2957.6702,N,09540.1892,W,2,10,0.81,44.3,M,-23.6,M,0000,0000*69
$GPGSA,A,3,18,15,22,24,29,09,06,21,26,03,,,1.69,0.81,1.48*03
$GPGSV,3,1,11,21,77,029,29,18,58,333,50,51,52,202,32,24,46,111,31*7F
$GPGSV,3,2,11,06,39,206,36,15,33,042,39,22,33,284,34,09,31,121,33*7D
$GPGSV,3,3,11,29,24,182,29,26,22,039,24,03,12,313,37*49
$GPRMC,222924.800,A,2957.6702,N,09540.1892,W,0.00,2.57,060208,,,D*70
$GPGGA,222925.000,2957.6702,N,09540.1892,W,2,10,0.81,44.3,M,-23.6,M,0000,0000*60
$GPGSA,A,3,18,15,22,24,29,09,06,21,26,03,,,1.69,0.81,1.48*03
$GPGSV,3,1,11,21,77,029,32,18,58,333,49,51,52,202,31,24,46,111,33*7C
$GPGSV,3,2,11,06,39,206,37,15,33,042,41,22,33,284,36,09,31,121,33*71
$GPGSV,3,3,11,29,24,182,29,26,22,039,24,03,12,313,38*46
$GPRMC,222925.000,A,2957.6702,N,09540.1892,W,0.00,2.57,060208,,,D*79
$GPGGA,222925.200,2957.6702,N,09540.1892,W,2,10,0.81,44.3,M,-23.6,M,0000,0000*62
$GPGSA,A,3,18,15,22,24,29,09,06,21,26,03,,,1.69,0.81,1.48*03
$GPGSV,3,1,11,21,77,029,32,18,58,333,49,51,52,202,33,24,46,111,33*7E
$GPGSV,3,2,11,06,39,206,37,15,33,042,40,22,33,284,36,09,31,121,33*70
$GPGSV,3,3,11,29,24,182,28,26,22,039,24,03,12,313,38*47
$GPRMC,222925.200,A,2957.6702,N,09540.1892,W,0.00,2.57,060208,,,D*7B
$GPGGA,222925.400,2957.6702,N,09540.1892,W,2,10,0.81,44.3,M,-23.6,M,0000,0000*64
$GPGSA,A,3,18,15,22,24,29,09,06,21,26,03,,,1.69,0.81,1.48*03
$GPGSV,3,1,11,21,77,029,33,18,58,333,49,51,52,202,33,24,46,111,35*79
$GPGSV,3,2,11,06,39,206,37,15,33,042,40,22,33,284,36,09,31,121,33*70
$GPGSV,3,3,11,29,24,182,31,26,22,039,25,03,12,313,38*4E
$GPRMC,222925.400,A,2957.6702,N,09540.1892,W,0.00,2.57,060208,,,D*7D
$GPGGA,222925.600,2957.6702,N,09540.1892,W,2,10,0.81,44.3,M,-23.6,M,0000,0000*66
$GPGSA,A,3,18,15,22,24,29,09,06,21,26,03,,,1.69,0.81,1.48*03
$GPGSV,3,1,11,21,77,029,31,18,58,333,49,51,52,202,31,24,46,111,35*79
$GPGSV,3,2,11,06,39,206,36,15,33,042,40,22,33,284,37,09,31,121,32*71
$GPGSV,3,3,11,29,24,182,31,26,22,039,25,03,12,313,38*4E
$GPRMC,222925.600,A,2957.6702,N,09540.1892,W,0.00,2.57,060208,,,D*7F
$GPGGA,222925.800,2957.6702,N,09540.1892,W,2,10,0.81,44.3,M,-23.6,M,0000,0000*68
$GPGSA,A,3,18,15,22,24,29,09,06,21,26,03,,,1.69,0.81,1.48*03
$GPGSV,3,1,11,21,77,029,31,18,58,333,49,51,52,202,32,24,46,111,35*7A
$GPGSV,3,2,11,06,39,206,36,15,33,042,39,22,33,284,37,09,31,121,32*7F
$GPGSV,3,3,11,29,24,182,31,26,22,039,27,03,12,313,38*4C
$GPRMC,222925.800,A,2957.6702,N,09540.1892,W,0.00,2.57,060208,,,D*71
$GPGGA,222926.000,2957.6702,N,09540.1892,W,2,10,0.81,44.3,M,-23.6,M,0000,0000*63
$GPGSA,A,3,18,15,22,24,29,09,06,21,26,03,,,1.69,0.81,1.48*03
$GPGSV,3,1,11,21,77,029,30,18,58,333,50,51,52,202,31,24,46,111,33*76
$GPGSV,3,2,11,06,39,206,36,15,33,042,39,22,33,284,37,09,31,121,32*7F
$GPGSV,3,3,11,29,24,182,31,26,22,039,27,03,12,313,39*4D
$GPRMC,222926.000,A,2957.6702,N,09540.1892,W,0.00,2.57,060208,,,D*7A
$GPGGA,222926.200,2957.6702,N,09540.1892,W,2,10,0.81,44.3,M,-23.6,M,0000,0000*61
$GPGSA,A,3,18,15,22,24,29,09,06,21,26,03,,,1.69,0.81,1.48*03
$GPGSV,3,1,11,21,77,029,30,18,58,333,49,51,52,202,32,24,46,111,34*7A
$GPGSV,3,2,11,06,39,206,36,15,33,042,38,22,33,284,37,09,31,121,32*7E
$GPGSV,3,3,11,29,24,182,29,26,22,039,26,03,12,313,38*44
$GPRMC,222926.200,A,2957.6702,N,09540.1892,W,0.00,2.57,060208,,,D*78
$GPGGA,222926.400,2957.6702,N,09540.1892,W,2,10,0.81,44.3,M,-23.6,M,0000,0000*67
$GPGSA,A,3,18,15,22,24,29,09,06,21,26,03,,,1.69,0.81,1.48*03
$GPGSV,3,1,11,21,77,029,32,18,58,333,49,51,52,202,30,24,46,111,34*7A
$GPGSV,3,2,11,06,39,206,35,15,33,042,38,22,33,284,37,09,31,121,32*7D
$GPGSV,3,3,11,29,24,182,29,26,22,039,26,03,12,313,38*44
$GPRMC,222926.400,A,2957.6702,N,09540.1892,W,0.00,2.57,060208,,,D*7E
$GPGGA,222926.600,2957.6702,N,09540.1892,W,2,10,0.81,44.3,M,-23.6,M,0000,0000*65
$GPGSA,A,3,18,15,22,24,29,09,06,21,26,03,,,1.69,0.81,1.48*03
$GPGSV,3,1,11,21,77,029,32,18,58,333,49,51,52,202,30,24,46,111,35*7B
$GPGSV,3,2,11,06,39,206,35,15,33,042,38,22,33,284,36,09,31,121,33*7D
$GPGSV,3,3,11,29,24,182,27,26,22,039,26,03,12,313,38*4A
$GPRMC,222926.600,A,2957.6702,N,09540.1892,W,0.00,2.57,060208,,,D*7C
$GPGGA,222926.800,2957.6702,N,09540.1892,W,2,10,0.81,44.3,M,-23.6,M,0000,0000*6B
$GPGSA,A,3,18,15,22,24,29,09,06,21,26,03,,,1.69,0.81,1.48*03
$GPGSV,3,1,11,21,77,029,32,18,58,333,49,51,52,202,29,24,46,111,37*71
$GPGSV,3,2,11,06,39,206,35,15,33,042,37,22,33,284,37,09,32,121,33*70
$GPGSV,3,3,11,29,24,182,27,26,22,039,26,03,12,313,38*4A
$GPRMC,222926.800,A,2957.6702,N,09540.1892,W,0.00,2.57,060208,,,D*72
$GPGGA,222927.000,2957.6702,N,09540.1892,W,2,10,0.81,44.3,M,-23.6,M,0000,0000*62
$GPGSA,A,3,18,15,22,24,29,09,06,21,26,03,,,1.69,0.81,1.48*03
$GPGSV,3,1,11,21,77,029,32,18,58,333,49,51,52,202,29,24,46,111,37*71
$GPGSV,3,2,11,06,39,206,35,15,33,042,38,22,33,284,37,09,32,121,35*79
$GPGSV,3,3,11,29,24,182,28,26,22,039,26,03,12,313,38*45
$GPRMC,222927.000,A,2957.6702,N,09540.1892,W,0.00,2.57,060208,,,D*7B
$GPGGA,222927.200,2957.6702,N,09540.1892,W,2,10,0.81,44.3,M,-23.6,M,0000,0000*60
$GPGSA,A,3,18,15,22,24,29,09,06,21,26,03,,,1.69,0.81,1.48*03
$GPGSV,3,1,11,21,77,029,31,18,58,333,49,51,52,202,30,24,46,111,37*7A
$GPGSV,3,2,11,06,39,206,35,15,33,042,38,22,33,284,36,09,32,121,33*7E
$GPGSV,3,3,11,29,24,182,28,26,22,039,26,03,12,313,38*45
$GPRMC,222927.200,A,2957.6702,N,09540.1892,W,0.00,2.57,060208,,,D*79
$GPGGA,222927.400,2957.6702,N,09540.1892,W,2,10,0.81,44.3,M,-23.6,M,0000,0000*66
$GPGSA,A,3,18,15,22,24,29,09,06,21,26,03,,,1.69,0.81,1.48*03
$GPGSV,3,1,11,21,77,029,31,18,58,333,49,51,52,202,29,24,46,111,33*76
$GPGSV,3,2,11,06,39,206,37,15,33,042,38,22,33,284,35,09,32,121,33*7F
$GPGSV,3,3,11,29,24,182,29,26,22,039,26,03,12,313,38*44
$GPRMC,222927.400,A,2957.6702,N,09540.1892,W,0.00,2.57,060208,,,D*7F
$GPGGA,222927.600,2957.6702,N,09540.1892,W,2,9,0.82,44.3,M,-23.6,M,0000,0000*5F
$GPGSA,A,3,18,15,22,24,29,09,06,26,03,,,,2.07,0.82,1.90*0D
$GPGSV,3,1,11,21,77,029,26,18,58,333,48,51,52,202,29,24,46,111,33*71
$GPGSV,3,2,11,06,39,206,38,15,33,042,37,22,33,284,35,09,32,121,28*75
$GPGSV,3,3,11,29,24,182,33,26,22,039,24,03,12,313,37*42
$GPRMC,222927.600,A,2957.6702,N,09540.1892,W,0.00,2.57,060208,,,D*7D
$GPGGA,222927.800,2957.6702,N,09540.1892,W,2,8,0.90,44.3,M,-23.6,M,0000,0000*53
$GPGSA,A,3,18,15,24,29,09,06,26,03,,,,,2.12,0.90,1.92*08
$GPGSV,3,1,11,21,77,029,26,18,58,333,48,51,52,202,29,24,46,111,29*7A
$GPGSV,3,2,11,06,39,206,38,15,33,042,37,22,33,284,,09,32,121,28*73
$GPGSV,3,3,11,29,24,182,33,26,22,039,24,03,12,313,37*42
$GPRMC,222927.800,A,2957.6702,N,09540.1892,W,0.00,2.57,060208,,,D*73
$GPGGA,222928.000,2957.6702,N,09540.1892,W,2,9,0.89,44.3,M,-23.6,M,0000,0000*5D
$GPGSA,A,3,18,15,24,29,09,06,21,26,03,,,,1.73,0.89,1.49*01
$GPGSV,3,1,11,21,77,029,28,18,58,333,46,51,52,202,29,24,46,111,29*7A
$GPGSV,3,2,11,06,39,206,33,15,33,042,35,22,33,284,,09,32,121,26*74
$GPGSV,3,3,11,29,24,182,28,26,22,039,21,03,12,313,33*49
$GPRMC,222928.000,A,2957.6702,N,09540.1892,W,0.00,2.57,060208,,,D*74
$GPGGA,222928.200,2957.6702,N,09540.1892,W,2,9,0.89,44.3,M,-23.6,M,0000,0000*5F
$GPGSA,A,3,18,15,24,29,09,06,21,26,03,,,,1.73,0.89,1.48*00
$GPGSV,3,1,11,21,77,029,28,18,58,333,43,51,52,202,27,24,46,111,30*79
$GPGSV,3,2,11,06,39,206,33,15,33,042,35,22,33,284,,09,32,121,26*74
$GPGSV,3,3,11,29,24,182,28,26,22,039,21,03,12,313,33*49
$GPRMC,222928.200,A,2957.6702,N,09540.1892,W,0.00,2.57,060208,,,D*76
$GPGGA,222928.400,2957.6702,N,09540.1892,W,2,8,0.89,44.3,M,-23.6,M,0000,0000*58
$GPGSA,A,3,18,15,24,29,09,06,26,03,,,,,1.26,0.89,0.89*0F
$GPGSV,3,1,11,21,77,029,24,18,58,333,44,51,52,202,27,24,46,111,30*72
$GPGSV,3,2,11,06,39,206,32,15,33,042,32,22,33,284,,09,32,121,24*70
$GPGSV,3,3,11,29,24,182,28,26,22,039,21,03,12,313,27*4C
$GPRMC,222928.400,A,2957.6702,N,09540.1892,W,0.00,2.57,060208,,,D*70
$GPGGA,222928.600,2957.6702,N,09540.1892,W,2,8,0.89,44.3,M,-23.6,M,0000,0000*5A
$GPGSA,A,3,18,15,24,29,09,06,26,03,,,,,1.26,0.89,0.89*0F
$GPGSV,3,1,11,21,77,029,24,18,59,333,44,51,52,202,26,24,46,111,30*72
$GPGSV,3,2,11,06,39,206,32,15,33,042,33,22,33,284,22,09,32,121,24*71
$GPGSV,3,3,11,29,24,182,22,26,22,039,21,03,12,313,27*46
$GPRMC,222928.600,A,2957.6702,N,09540.1892,W,0.00,2.57,060208,,,D*72
$GPGGA,222928.800,2957.6702,N,09540.1892,W,2,8,0.90,44.3,M,-23.6,M,0000,0000*5C
$GPGSA,A,3,18,15,24,29,09,06,26,03,,,,,2.12,0.90,1.92*08
$GPGSV,3,1,11,21,77,029,24,18,59,333,45,51,52,202,26,24,46,111,30*73
$GPGSV,3,2,11,06,39,206,34,15,33,042,33,22,33,284,22,09,32,121,24*77
$GPGSV,3,3,11,29,24,182,22,26,22,039,21,03,12,313,26*47
$GPRMC,222928.800,A,2957.6702,N,09540.1892,W,0.00,2.57,060208,,,D*7C
$GPGGA,222929.000,2957.6702,N,09540.1892,W,2,8,1.00,44.3,M,-23.6,M,0000,0000*5D
$GPGSA,A,3,18,15,24,29,09,06,21,03,,,,,1.91,1.00,1.63*01
$GPGSV,3,1,11,21,77,029,27,18,59,333,45,51,52,202,26,24,46,111,31*71
$GPGSV,3,2,11,06,39,206,34,15,33,042,32,22,33,284,22,09,32,121,27*75
$GPGSV,3,3,11,29,24,182,27,26,22,039,17,03,12,313,26*47
$GPRMC,222929.000,A,2957.6702,N,09540.1892,W,0.00,2.57,060208,,,D*75
$GPGGA,222929.200,2957.6702,N,09540.1892,W,2,8,1.00,44.3,M,-23.6,M,0000,0000*5F
$GPGSA,A,3,18,15,24,29,09,06,21,03,,,,,1.91,1.00,1.63*01
$GPGSV,3,1,11,21,77,029,27,18,59,333,45,51,52,202,26,24,46,111,31*71
$GPGSV,3,2,11,06,39,206,35,15,33,042,32,22,33,284,22,09,32,121,27*74
$GPGSV,3,3,11,29,24,182,27,26,22,039,17,03,12,313,29*48
$GPRMC,222929.200,A,2957.6702,N,09540.1892,W,0.00,2.57,060208,,,D*77
$GPGGA,222929.400,2957.6702,N,09540.1892,W,2,8,0.97,44.3,M,-23.6,M,0000,0000*56
$GPGSA,A,3,18,15,24,29,09,06,21,03,,,,,1.29,0.97,0.85*04
$GPGSV,3,1,11,21,77,029,29,18,59,333,44,51,52,202,26,24,46,111,30*7F
$GPGSV,3,2,11,06,39,206,35,15,33,042,33,22,33,284,22,09,32,121,25*77
$GPGSV,3,3,11,29,24,182,27,26,22,039,17,03,12,313,29*48
$GPRMC,222929.400,A,2957.6702,N,09540.1892,W,0.00,2.57,060208,,,D*71
$GPGGA,222929.600,2957.6702,N,09540.1892,W,2,9,0.90,44.3,M,-23.6,M,0000,0000*52
$GPGSA,A,3,18,15,22,24,29,09,06,21,03,,,,1.24,0.90,0.85*0E
$GPGSV,3,1,11,21,77,029,29,18,59,333,44,51,52,202,29,24,46,111,30*70
$GPGSV,3,2,11,06,39,206,35,15,33,042,33,22,33,284,27,09,32,121,25*72
$GPGSV,3,3,11,29,24,182,27,26,22,039,17,03,12,313,30*40
$GPRMC,222929.600,A,2957.6702,N,09540.1892,W,0.00,2.57,060208,,,D*73
$GPGGA,222929.800,2957.6702,N,09540.1892,W,2,9,0.90,44.3,M,-23.6,M,0000,0000*5C
$GPGSA,A,3,18,15,22,24,29,09,06,21,03,,,,1.24,0.90,0.85*0E
$GPGSV,3,1,11,21,77,029,33,18,59,333,42,51,52,202,29,24,46,111,29*75
$GPGSV,3,2,11,06,39,206,35,15,33,042,33,22,33,284,27,09,32,121,26*71
$GPGSV,3,3,11,29,24,182,27,26,22,039,17,03,12,313,30*40
$GPRMC,222929.800,A,2957.6702,N,09540.1892,W,0.00,2.57,060208,,,D*7D
$GPGGA,222930.000,2957.6702,N,09540.1892,W,2,9,0.90,44.3,M,-23.6,M,0000,0000*5C
$GPGSA,A,3,18,15,22,24,29,09,06,21,03,,,,1.24,0.90,0.85*0E
$GPGSV,3,1,11,21,77,029,32,18,59,333,42,51,52,202,29,24,46,111,29*74
$GPGSV,3,2,11,06,39,206,35,15,33,042,31,22,33,284,33,09,32,121,26*76
$GPGSV,3,3,11,29,24,182,23,26,22,039,17,03,12,313,31*45
$GPRMC,222930.000,A,2957.6702,N,09540.1892,W,0.00,2.57,060208,,,D*7D
$GPGGA,222930.200,2957.6702,N,09540.1892,W,2,9,0.90,44.3,M,-23.6,M,0000,0000*5E
$GPGSA,A,3,18,15,22,24,29,09,06,21,03,,,,1.24,0.90,0.85*0E
$GPGSV,3,1,11,21,77,029,32,18,59,333,42,51,52,202,29,24,46,111,31*7D
$GPGSV,3,2,11,06,39,206,35,15,33,042,31,22,33,284,33,09,32,121,19*7A
$GPGSV,3,3,11,29,24,182,23,26,22,039,17,03,12,313,31*45
$GPRMC,222930.200,A,2957.6702,N,09540.1892,W,0.00,2.57,060208,,,D*7F
$GPGGA,222930.400,2957.6702,N,09540.1892,W,2,8,0.97,44.3,M,-23.6,M,0000,0000*5E
$GPGSA,A,3,18,15,22,24,29,06,21,03,,,,,1.30,0.97,0.86*06
$GPGSV,3,1,11,21,77,029,33,18,59,333,43,51,52,202,29,24,46,111,32*7E
$GPGSV,3,2,11,06,39,206,35,15,33,042,31,22,33,284,33,09,32,121,19*7A
$GPGSV,3,3,11,29,24,182,24,26,22,039,17,03,12,313,31*42
$GPRMC,222930.400,A,2957.6702,N,09540.1892,W,0.00,2.57,060208,,,D*79
$GPGGA,222930.600,2957.6702,N,09540.1892,W,2,8,0.97,44.3,M,-23.6,M,0000,0000*5C
$GPGSA,A,3,18,15,22,24,29,06,21,03,,,,,1.30,0.97,0.86*06
$GPGSV,3,1,11,21,77,029,33,18,59,333,44,51,52,202,29,24,46,111,32*79
$GPGSV,3,2,11,06,39,206,34,15,33,042,31,22,33,284,31,09,32,121,19*79
$GPGSV,3,3,11,29,24,182,24,26,22,039,17,03,12,313,30*43
$GPRMC,222930.600,A,2957.6702,N,09540.1892,W,0.00,2.57,060208,,,D*7B
$GPGGA,222930.800,2957.6702,N,09540.1892,W,2,9,0.90,44.3,M,-23.6,M,0000,0000*54
$GPGSA,A,3,18,15,22,24,29,09,06,21,03,,,,1.24,0.90,0.85*0E
$GPGSV,3,1,11,21,77,029,31,18,59,333,44,51,52,202,29,24,46,111,32*7B
$GPGSV,3,2,11,06,39,206,34,15,33,042,32,22,33,284,31,09,32,121,22*72
$GPGSV,3,3,11,29,24,182,24,26,22,039,17,03,12,313,30*43
$GPRMC,222930.800,A,2957.6702,N,09540.1892,W,0.00,2.57,060208,,,D*75
$GPGGA,222931.000,2957.6702,N,09540.1892,W,2,9,0.92,44.3,M,-23.6,M,0000,0000*5F
$GPGSA,A,3,18,15,22,24,29,09,06,21,03,,,,1.87,0.92,1.63*0C
$GPGSV,3,1,11,21,77,029,31,18,59,333,45,51,52,202,29,24,46,111,32*7A
$GPGSV,3,2,11,06,39,206,34,15,33,042,32,22,33,284,30,09,32,121,22*73
$GPGSV,3,3,11,29,24,182,24,26,22,039,17,03,12,313,31*42
$GPRMC,222931.000,A,2957.6702,N,09540.1892,W,0.00,2.57,060208,,,D*7C
$GPGGA,222931.200,2957.6702,N,09540.1892,W,2,9,0.90,44.3,M,-23.6,M,0000,0000*5F
$GPGSA,A,3,18,15,22,24,29,09,06,21,03,,,,1.24,0.90,0.85*0E
$GPGSV,3,1,11,21,77,029,30,18,59,333,44,51,52,202,28,24,46,111,33*7A
$GPGSV,3,2,11,06,39,206,34,15,33,042,32,22,33,284,30,09,32,121,22*73
$GPGSV,3,3,11,29,24,182,24,26,22,039,17,03,12,313,31*42
$GPRMC,222931.200,A,2957.6702,N,09540.1892,W,0.00,2.57,060208,,,D*7E
$GPGGA,222931.400,2957.6702,N,09540.1892,W,2,9,0.92,44.3,M,-23.6,M,0000,0000*5B
$GPGSA,A,3,18,15,22,24,29,09,06,21,03,,,,1.87,0.92,1.63*0C
$GPGSV,3,1,11,21,77,029,30,18,59,333,45,51,52,202,28,24,46,111,33*7B
$GPGSV,3,2,11,06,39,206,34,15,33,042,32,22,33,284,29,09,32,121,23*7A
$GPGSV,3,3,11,29,24,182,25,26,22,039,17,03,12,313,31*43
$GPRMC,222931.400,A,2957.6702,N,09540.1892,W,0.00,2.57,060208,,,D*78
$GPGGA,222931.600,2957.6702,N,09540.1892,W,2,10,0.81,44.3,M,-23.6,M,0000,0000*63
$GPGSA,A,3,18,15,22,24,29,09,06,21,26,03,,,1.69,0.81,1.48*03
$GPGSV,3,1,11,21,77,029,30,18,59,333,45,51,52,202,28,24,46,111,33*7B
$GPGSV,3,2,11,06,39,206,35,15,33,042,32,22,33,284,30,09,32,121,23*73
$GPGSV,3,3,11,29,24,182,25,26,22,039,20,03,12,313,31*47
$GPRMC,222931.600,A,2957.6702,N,09540.1892,W,0.00,2.57,060208,,,D*7A
$GPGGA,222931.800,2957.6702,N,09540.1892,W,2,9,0.92,44.3,M,-23.6,M,0000,0000*57
$GPGSA,A,3,18,15,22,24,29,09,06,21,03,,,,1.87,0.92,1.63*0C
$GPGSV,3,1,11,21,77,029,30,18,59,333,46,51,52,202,28,24,46,111,33*78
$GPGSV,3,2,11,06,39,206,35,15,33,042,32,22,33,284,30,09,32,121,23*73
$GPGSV,3,3,11,29,24,182,25,26,22,039,20,03,12,313,31*47
$GPRMC,222931.800,A,2957.6702,N,09540.1892,W,0.00,2.57,060208,,,D*74
$GPGGA,222932.000,2957.6702,N,09540.1892,W,2,9,0.92,44.3,M,-23.6,M,0000,0000*5C
$GPGSA,A,3,18,15,22,24,29,09,06,21,03,,,,1.87,0.92,1.63*0C
$GPGSV,3,1,11,21,77,029,31,18,59,333,46,51,52,202,28,24,46,111,33*79
$GPGSV,3,2,11,06,39,206,35,15,33,042,31,22,33,284,30,09,32,121,23*70
$GPGSV,3,3,11,29,24,182,22,26,22,039,20,03,12,313,31*40
$GPRMC,222932.000,A,2957.6702,N,09540.1892,W,0.00,2.57,060208,,,D*7F
$GPGGA,222932.200,2957.6702,N,09540.1892,W,2,9,0.92,44.3,M,-23.6,M,0000,0000*5E
$GPGSA,A,3,18,15,22,24,29,09,06,21,03,,,,1.87,0.92,1.63*0C
$GPGSV,3,1,11,21,77,029,31,18,59,333,45,51,52,202,29,24,46,111,33*7B
$GPGSV,3,2,11,06,39,206,35,15,33,042,32,22,33,284,30,09,32,121,22*72
$GPGSV,3,3,11,29,24,182,22,26,22,039,17,03,12,313,30*45
$GPRMC,222932.200,A,2957.6702,N,09540.1892,W,0.00,2.57,060208,,,D*7D
$GPGGA,222932.400,2957.6702,N,09540.1892,W,2,9,0.92,44.3,M,-23.6,M,0000,0000*58
$GPGSA,A,3,18,15,22,24,29,09,06,21,03,,,,1.87,0.92,1.63*0C
$GPGSV,3,1,11,21,77,029,31,18,59,333,45,51,52,202,29,24,46,111,33*7B
$GPGSV,3,2,11,06,39,206,35,15,33,042,32,22,33,284,30,09,32,121,22*72
$GPGSV,3,3,11,29,24,182,22,26,22,039,17,03,12,313,30*45
$GPRMC,222932.400,A,2957.6702,N,09540.1892,W,0.00,2.57,060208,,,D*7B
$GPGGA,222932.600,2957.6702,N,09540.1892,W,2,9,0.92,44.3,M,-23.6,M,0000,0000*5A
$GPGSA,A,3,18,15,22,24,29,09,06,21,03,,,,1.87,0.92,1.63*0C
$GPGSV,3,1,11,21,77,029,31,18,59,333,45,51,52,202,29,24,46,111,33*7B
$GPGSV,3,2,11,06,39,206,35,15,33,042,32,22,33,284,30,09,32,121,22*72
$GPGSV,3,3,11,29,24,182,22,26,22,039,17,03,12,313,31*44
$GPRMC,222932.600,A,2957.6702,N,09540.1892,W,0.00,2.57,060208,,,D*79
$GPGGA,222932.800,2957.6702,N,09540.1892,W,2,9,0.92,44.3,M,-23.6,M,0000,0000*54
$GPGSA,A,3,18,15,22,24,29,09,06,21,03,,,,1.87,0.92,1.63*0C
$GPGSV,3,1,11,21,77,029,31,18,59,333,45,51,52,202,28,24,46,111,33*7A
$GPGSV,3,2,11,06,39,206,35,15,33,042,32,22,33,284,31,09,32,121,22*73
$GPGSV,3,3,11,29,24,182,22,26,22,039,17,03,12,313,31*44
$GPRMC,222932.800,A,2957.6702,N,09540.1892,W,0.00,2.57,060208,,,D*77
$GPGGA,222933.000,2957.6702,N,09540.1892,W,2,9,0.90,44.3,M,-23.6,M,0000,0000*5F
$GPGSA,A,3,18,15,22,24,29,09,06,21,03,,,,1.24,0.90,0.85*0E
$GPGSV,3,1,11,21,77,029,32,18,59,333,44,51,52,202,28,24,46,111,33*78
$GPGSV,3,2,11,06,39,206,35,15,33,042,32,22,33,284,31,09,32,121,22*73
$GPGSV,3,3,11,29,24,182,21,26,22,039,17,03,12,313,30*46
$GPRMC,222933.000,A,2957.6702,N,09540.1892,W,0.00,2.57,060208,,,D*7E
$GPGGA,222933.200,2957.6702,N,09540.1892,W,2,9,0.92,44.3,M,-23.6,M,0000,0000*5F
$GPGSA,A,3,18,15,22,24,29,09,06,21,03,,,,1.87,0.92,1.63*0C
$GPGSV,3,1,11,21,77,029,32,18,59,333,45,51,52,202,28,24,46,111,32*78
$GPGSV,3,2,11,06,39,206,35,15,33,042,32,22,33,284,31,09,32,121,22*73
$GPGSV,3,3,11,29,24,182,21,26,22,039,17,03,12,313,30*46
$GPRMC,222933.200,A,2957.6702,N,09540.1892,W,0.00,2.57,060208,,,D*7C
$GPGGA,222933.400,2957.6702,N,09540.1892,W,2,9,0.92,44.3,M,-23.6,M,0000,0000*59
$GPGSA,A,3,18,15,22,24,29,09,06,21,03,,,,1.87,0.92,1.63*0C
$GPGSV,3,1,11,21,77,029,32,18,59,333,45,51,52,202,28,24,46,111,32*78
$GPGSV,3,2,11,06,39,206,35,15,33,042,32,22,33,284,31,09,32,121,21*70
$GPGSV,3,3,11,29,24,182,21,26,22,039,17,03,12,313,31*47
$GPRMC,222933.400,A,2957.6702,N,09540.1892,W,0.00,2.57,060208,,,D*7A
$GPGGA,222933.600,2957.6702,N,09540.1892,W,2,9,0.92,44.3,M,-23.6,M,0000,0000*5B
$GPGSA,A,3,18,15,22,24,29,09,06,21,03,,,,1.87,0.92,1.63*0C
$GPGSV,3,1,11,21,77,029,32,18,59,333,45,51,52,202,28,24,46,111,33*79
$GPGSV,3,2,11,06,39,206,35,15,33,042,32,22,33,284,31,09,32,121,21*70
$GPGSV,3,3,11,29,24,182,22,26,22,039,15,03,12,313,30*47
$GPRMC,222933.600,A,2957.6702,N,09540.1892,W,0.00,2.57,060208,,,D*78
$GPGGA,222933.800,2957.6702,N,09540.1892,W,2,9,0.92,44.3,M,-23.6,M,0000,0000*55
$GPGSA,A,3,18,15,22,24,29,09,06,21,03,,,,1.87,0.92,1.63*0C
$GPGSV,3,1,11,21,77,029,31,18,59,333,45,51,52,202,28,24,46,111,33*7A
$GPGSV,3,2,11,06,39,206,35,15,33,042,32,22,33,284,31,09,32,121,21*70
$GPGSV,3,3,11,29,24,182,22,26,22,039,15,03,12,313,30*47
$GPRMC,222933.800,A,2957.6702,N,09540.1892,W,0.00,2.57,060208,,,D*76
$GPGGA,222934.000,2957.6702,N,09540.1892,W,2,9,0.92,44.3,M,-23.6,M,0000,0000*5A
$GPGSA,A,3,18,15,22,24,29,09,06,21,03,,,,1.87,0.92,1.63*0C
$GPGSV,3,1,11,21,77,029,31,18,59,333,45,51,52,202,28,24,46,111,33*7A
$GPGSV,3,2,11,06,39,206,35,15,33,042,31,22,33,284,31,09,32,121,21*73
$GPGSV,3,3,11,29,24,182,22,26,22,039,15,03,12,313,30*47
$GPRMC,222934.000,A,2957.6702,N,09540.1892,W,0.00,2.57,060208,,,D*79
$GPGGA,222934.200,2957.6702,N,09540.1892,W,2,9,0.90,44.3,M,-23.6,M,0000,0000*5A
$GPGSA,A,3,18,15,22,24,29,09,06,21,03,,,,1.24,0.90,0.85*0E
$GPGSV,3,1,11,21,77,029,31,18,59,333,44,51,52,202,29,24,46,111,33*7A
$GPGSV,3,2,11,06,39,206,35,15,33,042,31,22,33,284,31,09,32,121,21*73
$GPGSV,3,3,11,29,24,182,23,26,22,039,15,03,12,313,30*46
$GPRMC,222934.200,A,2957.6702,N,09540.1892,W,0.00,2.57,060208,,,D*7B
$GPGGA,222934.400,2957.6702,N,09540.1892,W,2,9,0.92,44.3,M,-23.6,M,0000,0000*5E
$GPGSA,A,3,18,15,22,24,29,09,06,21,03,,,,1.87,0.92,1.63*0C
$GPGSV,3,1,11,21,77,029,32,18,59,333,45,51,52,202,29,24,46,111,33*78
$GPGSV,3,2,11,06,39,206,35,15,33,042,31,22,33,284,31,09,32,121,21*73
$GPGSV,3,3,11,29,24,182,23,26,22,039,15,03,12,313,29*4E
$GPRMC,222934.400,A,2957.6702,N,09540.1892,W,0.00,2.57,060208,,,D*7D
$GPGGA,222934.600,2957.6702,N,09540.1892,W,2,9,0.92,44.3,M,-23.6,M,0000,0000*5C
$GPGSA,A,3,18,15,22,24,29,09,06,21,03,,,,1.87,0.92,1.63*0C
$GPGSV,3,1,11,21,77,029,32,18,59,333,45,51,52,202,29,24,46,111,34*7F
$GPGSV,3,2,11,06,39,206,35,15,33,042,31,22,33,284,30,09,32,121,21*72
$GPGSV,3,3,11,29,24,182,23,26,22,039,15,03,12,313,29*4E
$GPRMC,222934.600,A,2957.6702,N,09540.1892,W,0.00,2.57,060208,,,D*7F
$GPGGA,222934.800,2957.6702,N,09540.1892,W,2,9,0.92,44.3,M,-23.6,M,0000,0000*52
$GPGSA,A,3,18,15,22,24,29,09,06,21,03,,,,1.87,0.92,1.63*0C
$GPGSV,3,1,11,21,77,029,32,18,59,333,45,51,52,202,28,24,46,111,34*7E
$GPGSV,3,2,11,06,39,206,35,15,33,042,32,22,33,284,30,09,32,121,21*71
$GPGSV,3,3,11,29,24,182,23,26,22,039,15,03,12,313,30*46
$GPRMC,222934.800,A,2957.6702,N,09540.1892,W,0.00,2.57,060208,,,D*71
$GPGGA,222935.000,2957.6702,N,09540.1892,W,2,9,0.92,44.3,M,-23.6,M,0000,0000*5B
$GPGSA,A,3,18,15,22,24,29,09,06,21,03,,,,1.87,0.92,1.63*0C
$GPGSV,3,1,11,21,77,029,32,18,59,333,45,51,52,202,28,24,46,111,34*7E
$GPGSV,3,2,11,06,39,206,35,15,33,042,32,22,33,284,31,09,32,121,21*70
$GPGSV,3,3,11,29,24,182,23,26,22,039,15,03,12,313,30*46
$GPRMC,222935.000,A,2957.6702,N,09540.1892,W,0.00,2.57,060208,,,D*78
$GPGGA,222935.200,2957.6702,N,09540.1892,W,2,9,0.92,44.3,M,-23.6,M,0000,0000*59
$GPGSA,A,3,18,15,22,24,29,09,06,21,03,,,,1.87,0.92,1.63*0C
$GPGSV,3,1,11,21,77,029,31,18,59,333,45,51,52,202,28,24,46,111,34*7D
$GPGSV,3,2,11,06,39,206,35,15,33,042,32,22,33,284,31,09,32,121,21*70
$GPGSV,3,3,11,29,24,182,23,26,22,039,15,03,12,313,30*46
$GPRMC,222935.200,A,2957.6702,N,09540.1892,W,0.00,2.57,060208,,,D*7A
$GPGGA,222935.400,2957.6702,N,09540.1892,W,2,8,1.00,44.3,M,-23.6,M,0000,0000*54
$GPGSA,A,3,18,15,22,24,29,06,21,03,,,,,1.98,1.00,1.71*02
$GPGSV,3,1,11,21,77,029,32,18,59,333,46,51,52,202,27,24,46,111,34*72
$GPGSV,3,2,11,06,39,206,35,15,33,042,32,22,33,284,31,09,32,121,21*70
$GPGSV,3,3,11,29,24,182,24,26,22,039,15,03,12,313,30*41
$GPRMC,222935.400,A,2957.6702,N,09540.1892,W,0.00,2.57,060208,,,D*7C
$GPGGA,222935.600,2957.6702,N,09540.1892,W,2,9,0.92,44.3,M,-23.6,M,0000,0000*5D
$GPGSA,A,3,18,15,22,24,29,09,06,21,03,,,,1.87,0.92,1.63*0C
$GPGSV,3,1,11,21,77,029,32,18,59,333,45,51,52,202,27,24,46,111,34*71
$GPGSV,3,2,11,06,39,206,35,15,33,042,32,22,33,284,31,09,32,121,21*70
$GPGSV,3,3,11,29,24,182,24,26,22,039,15,03,12,313,30*41
$GPRMC,222935.600,A,2957.6702,N,09540.1892,W,0.00,2.57,060208,,,D*7E
$GPGGA,222935.800,2957.6702,N,09540.1892,W,2,9,0.92,44.3,M,-23.6,M,0000,0000*53
$GPGSA,A,3,18,15,22,24,29,09,06,21,03,,,,1.87,0.92,1.63*0C
$GPGSV,3,1,11,21,77,029,31,18,59,333,45,51,52,202,27,24,46,111,34*72
$GPGSV,3,2,11,06,39,206,35,15,33,042,32,22,33,284,30,09,32,121,21*71
$GPGSV,3,3,11,29,24,182,24,26,22,039,15,03,12,313,30*41
$GPRMC,222935.800,A,2957.6702,N,09540.1892,W,0.00,2.57,060208,,,D*70
$GPGGA,222936.000,2957.6702,N,09540.1892,W,2,8,1.00,44.3,M,-23.6,M,0000,0000*53
$GPGSA,A,3,18,15,22,24,29,06,21,03,,,,,1.98,1.00,1.71*02
$GPGSV,3,1,11,21,77,029,31,18,59,333,45,51,52,202,27,24,46,111,34*72
$GPGSV,3,2,11,06,39,206,35,15,33,042,32,22,33,284,30,09,32,121,20*70
$GPGSV,3,3,11,29,24,182,24,26,22,039,14,03,12,313,30*40
$GPRMC,222936.000,A,2957.6702,N,09540.1892,W,0.00,2.57,060208,,,D*7B
$GPGGA,222936.200,2957.6702,N,09540.1892,W,2,8,0.97,44.3,M,-23.6,M,0000,0000*5E
$GPGSA,A,3,18,15,22,24,29,06,21,03,,,,,1.30,0.97,0.86*06
$GPGSV,3,1,11,21,77,029,32,18,59,333,44,51,52,202,27,24,46,111,34*70
$GPGSV,3,2,11,06,39,206,35,15,33,042,32,22,33,284,31,09,32,121,20*71
$GPGSV,3,3,11,29,24,182,24,26,22,039,14,03,12,313,30*40
$GPRMC,222936.200,A,2957.6702,N,09540.1892,W,0.00,2.57,060208,,,D*79
$GPGGA,222936.400,2957.6702,N,09540.1892,W,2,8,1.00,44.3,M,-23.6,M,0000,0000*57
$GPGSA,A,3,18,15,22,24,29,06,21,03,,,,,1.98,1.00,1.71*02
$GPGSV,3,1,11,21,77,029,32,18,59,333,45,51,52,202,28,24,46,111,34*7E
$GPGSV,3,2,11,06,39,206,36,15,33,042,32,22,33,284,31,09,32,121,20*72
$GPGSV,3,3,11,29,24,182,21,26,22,039,14,03,12,313,30*45
$GPRMC,222936.400,A,2957.6702,N,09540.1892,W,0.00,2.57,060208,,,D*7F
$GPGGA,222936.600,2957.6702,N,09540.1892,W,2,8,0.97,44.3,M,-23.6,M,0000,0000*5A
$GPGSA,A,3,18,15,22,24,29,06,21,03,,,,,1.30,0.97,0.86*06
$GPGSV,3,1,11,21,77,029,31,18,59,333,44,51,52,202,28,24,46,111,34*7C
$GPGSV,3,2,11,06,39,206,36,15,33,042,32,22,33,284,31,09,32,121,20*72
$GPGSV,3,3,11,29,24,182,21,26,22,039,14,03,12,313,30*45
$GPRMC,222936.600,A,2957.6702,N,09540.1892,W,0.00,2.57,060208,,,D*7D
$GPGGA,222936.800,2957.6702,N,09540.1892,W,2,8,0.97,44.3,M,-23.6,M,0000,0000*54
$GPGSA,A,3,18,15,22,24,29,06,21,03,,,,,1.29,0.97,0.86*0E
$GPGSV,3,1,11,21,77,029,31,18,59,333,44,51,52,202,28,24,46,111,34*7C
$GPGSV,3,2,11,06,39,206,35,15,33,042,31,22,33,284,31,09,32,121,20*72
$GPGSV,3,3,11,29,24,182,21,26,22,039,14,03,12,313,30*45
$GPRMC,222936.800,A,2957.6702,N,09540.1892,W,0.00,2.57,060208,,,D*73
$GPGGA,222937.000,2957.6702,N,09540.1892,W,2,8,1.00,44.3,M,-23.6,M,0000,0000*52
$GPGSA,A,3,18,15,22,24,29,06,21,03,,,,,1.98,1.00,1.71*02
$GPGSV,3,1,11,21,77,029,31,18,59,333,45,51,52,202,28,24,46,111,34*7D
$GPGSV,3,2,11,06,39,206,35,15,33,042,31,22,33,284,31,09,32,121,20*72
$GPGSV,3,3,11,29,24,182,23,26,22,039,14,03,12,313,30*47
$GPRMC,222937.000,A,2957.6702,N,09540.1892,W,0.00,2.57,060208,,,D*7A
$GPGGA,222937.200,2957.6702,N,09540.1892,W,2,8,0.97,44.3,M,-23.6,M,0000,0000*5F
$GPGSA,A,3,18,15,22,24,29,06,21,03,,,,,1.29,0.97,0.86*0E
$GPGSV,3,1,11,21,77,029,31,18,59,333,44,51,52,202,28,24,46,111,34*7C
$GPGSV,3,2,11,06,39,206,35,15,33,042,31,22,33,284,31,09,32,121,20*72
$GPGSV,3,3,11,29,24,182,23,26,22,039,14,03,12,313,30*47
$GPRMC,222937.200,A,2957.6702,N,09540.1892,W,0.00,2.57,060208,,,D*78
$GPGGA,222937.400,2957.6702,N,09540.1892,W,2,8,1.00,44.3,M,-23.6,M,0000,0000*56
$GPGSA,A,3,18,15,22,24,29,06,21,03,,,,,1.98,1.00,1.71*02
$GPGSV,3,1,11,21,77,029,31,18,59,333,45,51,52,202,28,24,46,111,34*7D
$GPGSV,3,2,11,06,39,206,35,15,33,042,32,22,33,284,31,09,32,121,20*71
$GPGSV,3,3,11,29,24,182,23,26,22,039,15,03,12,313,30*46
$GPRMC,222937.400,A,2957.6702,N,09540.1892,W,0.00,2.57,060208,,,D*7E
$GPGGA,222937.600,2957.6702,N,09540.1892,W,2,8,1.00,44.3,M,-23.6,M,0000,0000*54
$GPGSA,A,3,18,15,22,24,29,06,21,03,,,,,1.98,1.00,1.71*02
$GPGSV,3,1,11,21,77,029,32,18,59,333,45,51,52,202,28,24,46,111,34*7E
$GPGSV,3,2,11,06,39,206,36,15,33,042,32,22,33,284,32,09,32,121,20*71
$GPGSV,3,3,11,29,24,182,23,26,22,039,15,03,12,313,30*46
$GPRMC,222937.600,A,2957.6702,N,09540.1892,W,0.00,2.57,060208,,,D*7C
$GPGGA,222937.800,2957.6702,N,09540.1892,W,2,8,1.00,44.3,M,-23.6,M,0000,0000*5A
$GPGSA,A,3,18,15,22,24,29,06,21,03,,,,,1.98,1.00,1.71*02
$GPGSV,3,1,11,21,77,029,32,18,59,333,45,51,52,202,28,24,46,111,34*7E
$GPGSV,3,2,11,06,39,206,36,15,33,042,32,22,33,284,32,09,32,121,20*71
$GPGSV,3,3,11,29,24,182,23,26,22,039,15,03,12,313,30*46
$GPRMC,222937.800,A,2957.6702,N,09540.1892,W,0.00,2.57,060208,,,D*72
$GPGGA,222938.000,2957.6702,N,09540.1892,W,2,9,0.92,44.3,M,-23.6,M,0000,0000*56
$GPGSA,A,3,18,15,22,24,29,09,06,21,03,,,,1.87,0.92,1.63*0C
$GPGSV,3,1,11,21,77,029,31,18,59,333,45,51,52,202,28,24,46,111,34*7D
$GPGSV,3,2,11,06,39,206,35,15,33,042,32,22,33,284,31,09,32,121,21*70
$GPGSV,3,3,11,29,24,182,24,26,22,039,15,03,12,313,30*41
$GPRMC,222938.000,A,2957.6702,N,09540.1892,W,0.00,2.57,060208,,,D*75
$GPGGA,222938.200,2957.6702,N,09540.1892,W,2,9,0.92,44.3,M,-23.6,M,0000,0000*54
$GPGSA,A,3,18,15,22,24,29,09,06,21,03,,,,1.87,0.92,1.63*0C
$GPGSV,3,1,11,21,77,029,31,18,59,333,45,51,52,202,28,24,46,111,34*7D
$GPGSV,3,2,11,06,39,206,35,15,33,042,31,22,33,284,31,09,32,121,21*73
$GPGSV,3,3,11,29,24,182,24,26,22,039,15,03,12,313,30*41
$GPRMC,222938.200,A,2957.6702,N,09540.1892,W,0.00,2.57,060208,,,D*77
$GPGGA,222938.400,2957.6702,N,09540.1892,W,2,9,0.92,44.3,M,-23.6,M,0000,0000*52
$GPGSA,A,3,18,15,22,24,29,09,06,21,03,,,,1.87,0.92,1.63*0C
$GPGSV,3,1,11,21,77,029,31,18,59,333,45,51,52,202,29,24,46,111,33*7B
$GPGSV,3,2,11,06,39,206,35,15,33,042,31,22,33,284,31,09,32,121,21*73
$GPGSV,3,3,11,29,24,182,24,26,22,039,15,03,12,313,30*41
$GPRMC,222938.400,A,2957.6702,N,09540.1892,W,0.00,2.57,060208,,,D*71
$GPGGA,222938.600,2957.6702,N,09540.1892,W,2,9,0.92,44.3,M,-23.6,M,0000,0000*50
$GPGSA,A,3,18,15,22,24,29,09,06,21,03,,,,1.87,0.92,1.63*0C
$GPGSV,3,1,11,21,77,029,32,18,59,333,45,51,52,202,29,24,46,111,34*7F
$GPGSV,3,2,11,06,39,206,35,15,33,042,32,22,33,284,31,09,32,121,22*73
$GPGSV,3,3,11,29,24,182,23,26,22,039,14,03,12,313,30*47
$GPRMC,222938.600,A,2957.6702,N,09540.1892,W,0.00,2.57,060208,,,D*73
$GPGGA,222938.800,2957.6702,N,09540.1892,W,2,9,0.92,44.3,M,-23.6,M,0000,0000*5E
$GPGSA,A,3,18,15,22,24,29,09,06,21,03,,,,1.87,0.92,1.63*0C
$GPGSV,3,1,11,21,77,029,32,18,59,333,45,51,52,202,28,24,46,111,34*7E
$GPGSV,3,2,11,06,39,206,35,15,33,042,32,22,33,284,31,09,32,121,22*73
$GPGSV,3,3,11,29,24,182,23,26,22,039,14,03,12,313,30*47
$GPRMC,222938.800,A,2957.6702,N,09540.1892,W,0.00,2.57,060208,,,D*7D
$GPGGA,222939.000,2957.6702,N,09540.1892,W,2,9,0.92,44.3,M,-23.6,M,0000,0000*57
$GPGSA,A,3,18,15,22,24,29,09,06,21,03,,,,1.87,0.92,1.63*0C
$GPGSV,3,1,11,21,77,029,31,18,59,333,45,51,52,202,28,24,46,111,34*7D
$GPGSV,3,2,11,06,38,206,35,15,33,042,31,22,33,284,31,09,32,121,22*71
$GPGSV,3,3,11,29,24,182,22,26,22,039,14,03,12,313,30*46
$GPRMC,222939.000,A,2957.6702,N,09540.1892,W,0.00,2.57,060208,,,D*74
$GPGGA,222939.200,2957.6702,N,09540.1892,W,2,8,1.00,44.3,M,-23.6,M,0000,0000*5E
$GPGSA,A,3,18,15,22,24,29,06,21,03,,,,,1.98,1.00,1.71*02
$GPGSV,3,1,11,21,77,029,31,18,59,333,45,51,52,202,28,24,46,111,34*7D
$GPGSV,3,2,11,06,38,206,35,15,33,042,31,22,33,284,32,09,32,121,20*70
$GPGSV,3,3,11,29,24,182,22,26,22,039,14,03,12,313,30*46
$GPRMC,222939.200,A,2957.6702,N,09540.1892,W,0.00,2.57,060208,,,D*76
$GPGGA,222939.400,2957.6702,N,09540.1892,W,2,8,1.00,44.3,M,-23.6,M,0000,0000*58
$GPGSA,A,3,18,15,22,24,29,06,21,03,,,,,1.98,1.00,1.71*02
$GPGSV,3,1,11,21,77,029,31,18,59,333,45,51,52,202,28,24,46,111,34*7D
$GPGSV,3,2,11,06,38,206,35,15,33,042,32,22,33,284,32,09,32,121,20*73
$GPGSV,3,3,11,29,24,182,22,26,22,039,14,03,12,313,30*46
$GPRMC,222939.400,A,2957.6702,N,09540.1892,W,0.00,2.57,060208,,,D*70
$GPGGA,222939.600,2957.6702,N,09540.1892,W,2,8,0.97,44.3,M,-23.6,M,0000,0000*55
$GPGSA,A,3,18,15,22,24,29,06,21,03,,,,,1.29,0.97,0.86*0E
$GPGSV,3,1,11,21,77,029,31,18,59,333,44,51,52,202,28,24,46,111,34*7C
$GPGSV,3,2,11,06,38,206,35,15,33,042,32,22,33,284,30,09,32,121,20*71
$GPGSV,3,3,11,29,24,182,24,26,22,039,14,03,12,313,30*40
$GPRMC,222939.600,A,2957.6702,N,09540.1892,W,0.00,2.57,060208,,,D*72
$GPGGA,222939.800,2957.6702,N,09540.1892,W,2,9,0.92,44.3,M,-23.6,M,0000,0000*5F
$GPGSA,A,3,18,15,22,24,29,09,06,21,03,,,,1.87,0.92,1.63*0C
$GPGSV,3,1,11,21,77,029,31,18,59,333,45,51,52,202,28,24,46,111,34*7D
$GPGSV,3,2,11,06,38,206,35,15,33,042,32,22,33,284,30,09,32,121,22*73
$GPGSV,3,3,11,29,24,182,24,26,22,039,14,03,12,313,30*40
$GPRMC,222939.800,A,2957.6702,N,09540.1892,W,0.00,2.57,060208,,,D*7C
$GPGGA,222940.000,2957.6702,N,09540.1892,W,2,9,0.92,44.3,M,-23.6,M,0000,0000*59
$GPGSA,A,3,18,15,22,24,29,09,06,21,03,,,,1.87,0.92,1.63*0C
$GPGSV,3,1,11,21,77,029,31,18,59,333,45,51,52,202,28,24,46,111,34*7D
$GPGSV,3,2,11,06,38,206,35,15,33,042,32,22,33,284,31,09,32,121,22*72
$GPGSV,3,3,11,29,24,182,23,26,22,039,14,03,12,313,31*46
$GPRMC,222940.000,A,2957.6702,N,09540.1892,W,0.00,2.57,060208,,,D*7A
$GPGGA,222940.200,2957.6702,N,09540.1892,W,2,9,0.92,44.3,M,-23.6,M,0000,0000*5B
$GPGSA,A,3,18,15,22,24,29,09,06,21,03,,,,1.87,0.92,1.63*0C
$GPGSV,3,1,11,21,77,029,32,18,59,333,45,51,52,202,28,24,46,111,34*7E
$GPGSV,3,2,11,06,38,206,35,15,33,042,32,22,33,284,31,09,32,121,22*72
$GPGSV,3,3,11,29,24,182,23,26,22,039,14,03,12,313,31*46
$GPRMC,222940.200,A,2957.6702,N,09540.1892,W,0.00,2.57,060208,,,D*78
$GPGGA,222940.400,2957.6702,N,09540.1892,W,2,8,0.97,44.3,M,-23.6,M,0000,0000*59
$GPGSA,A,3,18,15,22,24,29,06,21,03,,,,,1.29,0.97,0.86*0E
$GPGSV,3,1,11,21,77,029,32,18,59,333,44,51,52,202,29,24,46,111,34*7E
$GPGSV,3,2,11,06,38,206,35,15,33,042,32,22,33,284,30,09,32,121,18*7A
$GPGSV,3,3,11,29,24,182,24,26,22,039,14,03,12,313,30*40
$GPRMC,222940.400,A,2957.6702,N,09540.1892,W,0.00,2.57,060208,,,D*7E
$GPGGA,222940.600,2957.6702,N,09540.1892,W,2,8,1.00,44.3,M,-23.6,M,0000,0000*54
$GPGSA,A,3,18,15,22,24,29,06,21,03,,,,,1.98,1.00,1.71*02
$GPGSV,3,1,11,21,77,029,32,18,59,333,45,51,52,202,29,24,46,111,34*7F
$GPGSV,3,2,11,06,38,206,35,15,33,042,32,22,33,284,30,09,32,121,18*7A
$GPGSV,3,3,11,29,24,182,24,26,22,039,14,03,12,313,30*40
$GPRMC,222940.600,A,2957.6702,N,09540.1892,W,0.00,2.57,060208,,,D*7C
$GPGGA,222940.800,2957.6702,N,09540.1892,W,2,8,1.00,44.3,M,-23.6,M,0000,0000*5A
$GPGSA,A,3,18,15,22,24,29,06,21,03,,,,,1.98,1.00,1.71*02
$GPGSV,3,1,11,21,77,029,32,18,59,333,45,51,52,202,29,24,46,111,34*7F
$GPGSV,3,2,11,06,38,206,35,15,33,042,32,22,33,284,31,09,32,121,18*7B
$GPGSV,3,3,11,29,24,182,24,26,22,039,14,03,12,313,30*40
$GPRMC,222940.800,A,2957.6702,N,09540.1892,W,0.00,2.57,060208,,,D*72
$GPGGA,222941.000,2957.6702,N,09540.1892,W,2,8,1.00,44.3,M,-23.6,M,0000,0000*53
$GPGSA,A,3,18,15,22,24,29,06,21,03,,,,,1.98,1.00,1.71*02
$GPGSV,3,1,11,21,77,029,31,18,59,333,45,51,52,202,27,24,46,111,34*72
$GPGSV,3,2,11,06,38,206,35,15,33,042,31,22,33,284,31,09,32,121,18*78
$GPGSV,3,3,11,29,24,182,23,26,22,039,14,03,12,313,30*47
$GPRMC,222941.000,A,2957.6702,N,09540.1892,W,0.00,2.57,060208,,,D*7B
$GPGGA,222941.200,2957.6702,N,09540.1892,W,2,8,1.00,44.3,M,-23.6,M,0000,0000*51
$GPGSA,A,3,18,15,22,24,29,06,21,03,,,,,1.98,1.00,1.71*02
$GPGSV,3,1,11,21,77,029,31,18,59,333,45,51,52,202,27,24,46,111,34*72
$GPGSV,3,2,11,06,38,206,35,15,33,042,31,22,33,284,30,09,32,121,20*72
$GPGSV,3,3,11,29,24,182,23,26,22,039,15,03,12,313,30*46
$GPRMC,222941.200,A,2957.6702,N,09540.1892,W,0.00,2.57,060208,,,D*79
$GPGGA,222941.400,2957.6702,N,09540.1892,W,2,8,0.97,44.3,M,-23.6,M,0000,0000*58
$GPGSA,A,3,18,15,22,24,29,06,21,03,,,,,1.29,0.97,0.86*0E
$GPGSV,3,1,11,21,77,029,31,18,59,333,44,51,52,202,27,24,46,111,35*72
$GPGSV,3,2,11,06,38,206,35,15,33,042,32,22,33,284,30,09,32,121,20*71
$GPGSV,3,3,11,29,24,182,23,26,22,039,15,03,12,313,30*46
$GPRMC,222941.400,A,2957.6702,N,09540.1892,W,0.00,2.57,060208,,,D*7F
$GPGGA,222941.600,2957.6702,N,09540.1892,W,2,8,1.00,44.3,M,-23.6,M,0000,0000*55
$GPGSA,A,3,18,15,22,24,29,06,21,03,,,,,1.98,1.00,1.71*02
$GPGSV,3,1,11,21,77,029,32,18,59,333,45,51,52,202,27,24,46,111,34*71
$GPGSV,3,2,11,06,38,206,34,15,33,042,32,22,33,284,31,09,32,121,20*71
$GPGSV,3,3,11,29,24,182,23,26,22,039,15,03,12,313,30*46
$GPRMC,222941.600,A,2957.6702,N,09540.1892,W,0.00,2.57,060208,,,D*7D
$GPGGA,222941.800,2957.6702,N,09540.1892,W,2,9,0.92,44.3,M,-23.6,M,0000,0000*50
$GPGSA,A,3,18,15,22,24,29,09,06,21,03,,,,1.87,0.92,1.63*0C
$GPGSV,3,1,11,21,77,029,32,18,59,333,45,51,52,202,27,24,46,111,34*71
$GPGSV,3,2,11,06,38,206,35,15,33,042,32,22,33,284,31,09,32,121,21*71
$GPGSV,3,3,11,29,24,182,23,26,22,039,15,03,12,313,31*47
$GPRMC,222941.800,A,2957.6702,N,09540.1892,W,0.00,2.57,060208,,,D*73
$GPGGA,222942.000,2957.6702,N,09540.1892,W,2,9,0.90,44.3,M,-23.6,M,0000,0000*59
$GPGSA,A,3,18,15,22,24,29,09,06,21,03,,,,1.24,0.90,0.85*0E
$GPGSV,3,1,11,21,77,030,32,18,59,333,43,51,52,202,28,24,46,111,35*71
$GPGSV,3,2,11,06,38,206,35,15,33,042,32,22,33,284,31,09,32,121,21*71
$GPGSV,3,3,11,29,24,182,24,26,22,039,15,03,12,313,31*40
$GPRMC,222942.000,A,2957.6702,N,09540.1892,W,0.00,2.57,060208,,,D*78
$GPGGA,222942.200,2957.6702,N,09540.1892,W,2,9,0.90,44.3,M,-23.6,M,0000,0000*5B
$GPGSA,A,3,18,15,22,24,29,09,06,21,03,,,,1.24,0.90,0.85*0E
$GPGSV,3,1,11,21,77,030,32,18,59,333,41,51,52,202,28,24,46,111,35*73
$GPGSV,3,2,11,06,38,206,33,15,33,042,31,22,33,284,31,09,32,121,21*74
$GPGSV,3,3,11,29,24,182,24,26,22,039,15,03,12,313,29*49
$GPRMC,222942.200,A,2957.6702,N,09540.1892,W,0.00,2.57,060208,,,D*7A
$GPGGA,222942.400,2957.6702,N,09540.1892,W,2,8,1.00,44.3,M,-23.6,M,0000,0000*54
$GPGSA,A,3,18,15,22,24,29,06,21,03,,,,,1.98,1.00,1.71*02
$GPGSV,3,1,11,21,77,030,30,18,59,333,45,51,52,202,28,24,46,111,31*71
$GPGSV,3,2,11,06,38,206,33,15,33,042,31,22,33,284,28,09,32,121,19*77
$GPGSV,3,3,11,29,24,182,22,26,22,039,14,03,12,313,29*4E
$GPRMC,222942.400,A,2957.6702,N,09540.1892,W,0.00,2.57,060208,,,D*7C
$GPGGA,222942.600,2957.6702,N,09540.1892,W,2,8,1.00,44.3,M,-23.6,M,0000,0000*56
$GPGSA,A,3,18,15,22,24,29,06,21,03,,,,,1.98,1.00,1.71*02
$GPGSV,3,1,11,21,77,030,30,18,59,333,46,51,52,202,28,24,46,111,34*77
$GPGSV,3,2,11,06,38,206,34,15,33,042,30,22,33,284,28,09,32,121,19*71
$GPGSV,3,3,11,29,24,182,22,26,22,039,14,03,12,313,30*46
$GPRMC,222942.600,A,2957.6702,N,09540.1892,W,0.00,2.57,060208,,,D*7E
$GPGGA,222942.800,2957.6702,N,09540.1892,W,2,8,0.97,44.3,M,-23.6,M,0000,0000*57
$GPGSA,A,3,18,15,22,24,29,06,21,03,,,,,1.29,0.97,0.86*0E
$GPGSV,3,1,11,21,77,030,32,18,59,333,44,51,52,202,28,24,46,111,34*77
$GPGSV,3,2,11,06,38,206,34,15,33,042,30,22,33,284,31,09,32,121,19*79
$GPGSV,3,3,11,29,24,182,24,26,22,039,14,03,12,313,30*40
$GPRMC,222942.800,A,2957.6702,N,09540.1892,W,0.00,2.57,060208,,,D*70
$GPGGA,222943.000,2957.6702,N,09540.1892,W,2,9,0.92,44.3,M,-23.6,M,0000,0000*5A
$GPGSA,A,3,18,15,22,24,29,09,06,21,03,,,,1.87,0.92,1.63*0C
$GPGSV,3,1,11,21,77,030,32,18,59,333,45,51,52,202,28,24,46,111,33*71
$GPGSV,3,2,11,06,38,206,34,15,33,042,31,22,33,284,31,09,32,121,22*70
$GPGSV,3,3,11,29,24,182,24,26,22,039,14,03,12,313,30*40
$GPRMC,222943.000,A,2957.6702,N,09540.1892,W,0.00,2.57,060208,,,D*79
$GPGGA,222943.200,2957.6702,N,09540.1892,W,2,9,0.92,44.3,M,-23.6,M,0000,0000*58
$GPGSA,A,3,18,15,22,24,29,09,06,21,03,,,,1.87,0.92,1.63*0C
$GPGSV,3,1,11,21,77,030,33,18,59,333,45,51,52,202,28,24,46,111,35*76
$GPGSV,3,2,11,06,38,206,35,15,33,042,32,22,33,284,31,09,32,121,22*72
$GPGSV,3,3,11,29,24,182,24,26,22,039,14,03,12,313,30*40
$GPRMC,222943.200,A,2957.6702,N,09540.1892,W,0.00,2.57,060208,,,D*7B
$GPGGA,222943.400,2957.6702,N,09540.1892,W,2,9,0.90,44.3,M,-23.6,M,0000,0000*5C
$GPGSA,A,3,18,15,22,24,29,09,06,21,03,,,,1.24,0.90,0.85*0E
$GPGSV,3,1,11,21,77,030,33,18,59,333,44,51,52,202,28,24,46,111,35*77
$GPGSV,3,2,11,06,38,206,35,15,33,042,32,22,33,284,31,09,32,121,22*72
$GPGSV,3,3,11,29,24,182,25,26,22,039,14,03,12,313,30*41
$GPRMC,222943.400,A,2957.6702,N,09540.1892,W,0.00,2.57,060208,,,D*7D
$GPGGA,222943.600,2957.6702,N,09540.1892,W,2,9,0.92,44.3,M,-23.6,M,0000,0000*5C
$GPGSA,A,3,18,15,22,24,29,09,06,21,03,,,,1.87,0.92,1.63*0C
$GPGSV,3,1,11,21,77,030,33,18,59,333,45,51,52,202,28,24,46,111,35*76
$GPGSV,3,2,11,06,38,206,35,15,33,042,32,22,33,284,31,09,32,121,22*72
$GPGSV,3,3,11,29,24,182,25,26,22,039,14,03,12,313,30*41
$GPRMC,222943.600,A,2957.6702,N,09540.1892,W,0.00,2.57,060208,,,D*7F
$GPGGA,222943.800,2957.6702,N,09540.1892,W,2,9,0.92,44.3,M,-23.6,M,0000,0000*52
$GPGSA,A,3,18,15,22,24,29,09,06,21,03,,,,1.87,0.92,1.63*0C
$GPGSV,3,1,11,21,77,030,33,18,59,333,45,51,52,202,28,24,46,111,35*76
$GPGSV,3,2,11,06,38,206,35,15,33,042,32,22,33,284,31,09,32,121,22*72
$GPGSV,3,3,11,29,24,182,25,26,22,039,,03,12,313,31*45
$GPRMC,222943.800,A,2957.6702,N,09540.1892,W,0.00,2.57,060208,,,D*71
$GPGGA,222944.000,2957.6702,N,09540.1892,W,2,9,0.92,44.3,M,-23.6,M,0000,0000*5D
$GPGSA,A,3,18,15,22,24,29,09,06,21,03,,,,1.87,0.92,1.63*0C
$GPGSV,3,1,11,21,77,030,33,18,59,333,45,51,52,202,28,24,46,111,35*76
$GPGSV,3,2,11,06,38,206,35,15,33,042,31,22,33,284,31,09,32,121,22*71
$GPGSV,3,3,11,29,24,182,25,26,22,039,,03,12,313,31*45
$GPRMC,222944.000,A,2957.6702,N,09540.1892,W,0.00,2.57,060208,,,D*7E
$GPGGA,222944.200,2957.6702,N,09540.1892,W,2,9,0.92,44.3,M,-23.6,M,0000,0000*5F
$GPGSA,A,3,18,15,22,24,29,09,06,21,03,,,,1.87,0.92,1.63*0C
$GPGSV,3,1,11,21,77,030,33,18,59,333,45,51,52,202,28,24,46,111,35*76
$GPGSV,3,2,11,06,38,206,35,15,33,042,31,22,33,284,31,09,32,121,22*71
$GPGSV,3,3,11,29,24,182,25,26,22,039,,03,12,313,31*45
$GPRMC,222944.200,A,2957.6702,N,09540.1892,W,0.00,2.57,060208,,,D*7C
$GPGGA,222944.400,2957.6702,N,09540.1892,W,2,9,0.92,44.3,M,-23.6,M,0000,0000*59
$GPGSA,A,3,18,15,22,24,29,09,06,21,03,,,,1.87,0.92,1.63*0C
$GPGSV,3,1,11,21,77,030,33,18,59,333,45,51,52,202,28,24,46,111,35*76
$GPGSV,3,2,11,06,38,206,35,15,33,042,31,22,33,284,31,09,32,121,23*70
$GPGSV,3,3,11,29,24,182,24,26,22,039,,03,12,313,31*44
$GPRMC,222944.400,A,2957.6702,N,09540.1892,W,0.00,2.57,060208,,,D*7A
$GPGGA,222944.600,2957.6702,N,09540.1892,W,2,9,0.92,44.3,M,-23.6,M,0000,0000*5B
$GPGSA,A,3,18,15,22,24,29,09,06,21,03,,,,1.87,0.92,1.63*0C
$GPGSV,3,1,11,21,77,030,33,18,59,333,45,51,52,202,28,24,46,111,35*76
$GPGSV,3,2,11,06,38,206,35,15,33,042,32,22,33,284,31,09,32,121,23*73
$GPGSV,3,3,11,29,24,182,24,26,22,039,,03,12,313,31*44
$GPRMC,222944.600,A,2957.6702,N,09540.1892,W,0.00,2.57,060208,,,D*78
$GPGGA,222944.800,2957.6702,N,09540.1892,W,2,9,0.90,44.3,M,-23.6,M,0000,0000*57
$GPGSA,A,3,18,15,22,24,29,09,06,21,03,,,,1.24,0.90,0.85*0E
$GPGSV,3,1,11,21,77,030,32,18,59,333,44,51,52,202,28,24,46,111,35*76
$GPGSV,3,2,11,06,38,206,35,15,33,042,32,22,33,284,30,09,32,121,23*72
$GPGSV,3,3,11,29,24,182,25,26,22,039,,03,13,313,31*44
$GPRMC,222944.800,A,2957.6702,N,09540.1892,W,0.00,2.57,060208,,,D*76
$GPGGA,222945.000,2957.6702,N,09540.1892,W,2,9,0.92,44.3,M,-23.6,M,0000,0000*5C
$GPGSA,A,3,18,15,22,24,29,09,06,21,03,,,,1.87,0.92,1.63*0C
$GPGSV,3,1,11,21,77,030,32,18,59,333,45,51,52,202,28,24,46,111,35*77
$GPGSV,3,2,11,06,38,206,34,15,33,042,31,22,33,284,30,09,32,121,23*70
$GPGSV,3,3,11,29,24,182,25,26,22,039,,03,13,313,31*44
$GPRMC,222945.000,A,2957.6702,N,09540.1892,W,0.00,2.57,060208,,,D*7F
$GPGGA,222945.200,2957.6702,N,09540.1892,W,2,9,0.92,44.3,M,-23.6,M,0000,0000*5E
$GPGSA,A,3,18,15,22,24,29,09,06,21,03,,,,1.87,0.92,1.63*0C
$GPGSV,3,1,11,21,77,030,33,18,59,333,45,51,52,202,28,24,46,111,35*76
$GPGSV,3,2,11,06,38,206,34,15,33,042,31,22,33,284,31,09,32,121,23*71
$GPGSV,3,3,11,29,24,182,24,26,22,039,,03,13,313,31*45
$GPRMC,222945.200,A,2957.6702,N,09540.1892,W,0.00,2.57,060208,,,D*7D
$GPGGA,222945.400,2957.6702,N,09540.1892,W,2,9,0.92,44.3,M,-23.6,M,0000,0000*58
$GPGSA,A,3,18,15,22,24,29,09,06,21,03,,,,1.87,0.92,1.63*0C
$GPGSV,3,1,11,21,77,030,33,18,59,333,45,51,52,202,28,24,46,111,35*76
$GPGSV,3,2,11,06,38,206,35,15,33,042,32,22,33,284,31,09,32,121,23*73
$GPGSV,3,3,11,29,24,182,24,26,22,039,,03,13,313,31*45
$GPRMC,222945.400,A,2957.6702,N,09540.1892,W,0.00,2.57,060208,,,D*7B
$GPGGA,222945.600,2957.6702,N,09540.1892,W,2,9,0.92,44.3,M,-23.6,M,0000,0000*5A
$GPGSA,A,3,18,15,22,24,29,09,06,21,03,,,,1.87,0.92,1.63*0C
$GPGSV,3,1,11,21,77,030,33,18,59,333,45,51,52,202,28,24,46,111,35*76
$GPGSV,3,2,11,06,38,206,35,15,33,042,32,22,33,284,31,09,32,121,23*73
$GPGSV,3,3,11,29,24,182,24,26,22,039,,03,13,313,31*45
